어린이집명,어린이집등급,보육과정 및 상호작용,보육환경 및 운영관리,건강 및 안전,교직원,평가 인증 년월,우편번호,시군구명,어린이집코드,어린이집유형,상세주소,전화번호,시설 위도(좌표값),시설 경도(좌표값),제공서비스
GS건설 꿈과 희망의 어린이집,A,우수,우수,우수,우수,2022-09-01,3159,종로구,11110000156,직장,서울특별시 종로구 종로 33 그랑서울 타워2  (2층),02-3789-5971,37.57096024357674,126.98144024815856,일반
KIM&CHANG 어린이집,A,우수,우수,우수,우수,2023-08-01,3175,종로구,11110000150,직장,서울특별시 종로구 신문로2가 경희궁길 26 썬타워빌딩 1층,02-738-6901,37.57227407463736,126.97098987226796,일반
KT혜화 어린이집,A,우수,우수,우수,우수,2023-11-01,3082,종로구,11110000111,직장,서울특별시 종로구 대학로 65 (연건동),02-3676-9300,37.57700048,127.0042702,일반
LG광화문어린이집,A,우수,우수,우수,우수,2019-01-01,3184,종로구,11110000157,직장,서울특별시 종로구 신문로2가 새문안로 58,070-4065-0286,37.5692752221037,126.97157918099764,일반
SC으뜸별 어린이집,B,우수,보통,우수,우수,2020-01-01,3160,종로구,11110000170,직장,서울특별시 종로구 종로 47,02-3210-0904,37.5711261798,126.9824408691,일반
SGI서울보증 어린이집,A,우수,우수,우수,우수,2023-01-01,3128,종로구,11110000165,직장,서울특별시 종로구 김상옥로 29 2층,02-3671-7051,37.573628643388055,127.00103012788806,일반
SK ecoplant 행복날개어린이집,A,우수,우수,우수,우수,2022-12-01,3143,종로구,11110000152,직장,서울특별시 종로구 율곡로2길 19 SK ecoplant 행복날개어린이집,02-6395-0202,37.57443353268173,126.98114619280256,일반
SK네트웍스새싹어린이집,A,우수,우수,우수,우수,2022-06-01,3190,종로구,11140000026,직장,"서울특별시 종로구 청계천로 85 삼일빌딩, 3층",070-7800-2115,37.56505624,126.9830142,일반
SK행복어린이집,A,우수,우수,우수,우수,2023-12-01,3188,종로구,11110000105,직장,서울특별시 종로구 종로 26 SK서린동빌딩 2층,02-2121-1611,37.56967307,126.980289,일반
kids-sure어린이집,A,우수,우수,우수,우수,2021-07-01,3187,종로구,11110000147,직장,서울특별시 종로구 종로 14 (서린동),02-723-1272,37.570421002869445,126.98627649387804,일반
가회어린이집,A,우수,우수,우수,우수,2023-02-01,3056,종로구,11110000029,국공립,서울특별시 종로구 북촌로12길 12-2 가회어린이집 (가회동),02-3673-2085,37.58180502,126.9858807,야간연장
감사원어린이집,A,우수,우수,우수,우수,2023-07-01,3053,종로구,11110000183,직장,서울특별시 종로구 북촌로 127,02-730-9390,37.56647,126.977963,일반
경희궁솔빛어린이집,A,우수,우수,우수,우수,2023-08-01,3165,종로구,11110000174,국공립,서울특별시 종로구 송월길 99 210동 1층,02-732-8003,37.570919642,126.9622964217,야간연장
경희궁자이어린이집,A,우수,우수,우수,우수,2023-07-01,3180,종로구,11110000172,국공립,서울특별시 종로구 경교장길 35 306동 데크층,02-720-1633,37.56893882048901,126.96685686495866,야간연장
교보생명다솜이어린이집,A,우수,우수,우수,우수,2023-08-01,3176,종로구,11110000149,직장,서울특별시 종로구 신문로2가 경희궁1가길 3,02-722-2012,37.57206775576062,126.96937301306512,일반
구기어린이집,A,우수,우수,우수,우수,2021-07-01,3012,종로구,11110000154,민간,서울특별시 종로구 진흥로22길 8-1 (구기동),02-391-7072,37.60668049186278,126.95830100591704,야간연장
낙산어린이집,A,우수,우수,우수,우수,2022-06-01,3091,종로구,11110000015,국공립,서울특별시 종로구 창신길 210-11 낙산어린이집 (창신동),02-765-1268,37.57952972,127.0101667,"장애아통합,야간연장"
누상어린이집,A,우수,우수,우수,우수,2022-01-01,3037,종로구,11110000019,국공립,서울특별시 종로구 옥인길 23-4 (누상동),02-738-6711,37.58079240057926,126.9671957747272,야간연장
대학로어린이집,A,우수,우수,우수,우수,2019-11-01,3088,종로구,11110000143,국공립,서울특별시 종로구 이화장길 86-22,02-741-0323,37.57933439,127.0054732,야간연장
도담도담어린이집,C,개선필요,우수,우수,우수,2023-03-01,3110,종로구,11110000171,국공립,서울특별시 종로구 숭인동길 47,02-921-4500,37.5770648189,127.0218623558,야간연장
동화속아이들어린이집,A,우수,우수,우수,우수,2023-02-01,3025,종로구,11110000175,국공립,서울특별시 종로구 통일로 246-11 무악현대아파트 단지내,02-733-2440,37.5750955987,126.9591246301,야간연장
라이나생명 키즈나루 어린이집,A,우수,우수,우수,우수,2021-05-01,3156,종로구,11110000178,직장,서울특별시 종로구 삼봉로 48 시그나 빌딩 2층,02-3779-8170,37.57209526383034,126.98000913689998,일반
로카키즈어린이집,A,우수,우수,우수,우수,2022-08-01,3184,종로구,11110000180,직장,서울특별시 종로구 새문안로2길 10 1층,02-739-8042,37.56870363599733,126.97197897091388,일반
명륜어린이집,A,우수,우수,우수,우수,2020-03-01,3065,종로구,11110000044,국공립,서울특별시 종로구 성균관로13길 66 (명륜1가),02-742-8436,37.59133111,126.9949822,"장애아통합,야간연장"
무궁화어린이집,A,우수,우수,우수,우수,2020-08-01,3047,종로구,11110000142,직장,서울특별시 종로구 자하문로28길 8 외 1 (궁정동),02-730-2486,37.58479164,126.9710612,야간연장
무악어린이집,A,우수,우수,우수,우수,2023-03-01,3024,종로구,11110000023,국공립,서울특별시 종로구 통일로18길 64 (무악동),02-736-8003,37.57607379,126.9603255,야간연장
미래나무어린이집,A,우수,우수,우수,우수,2023-08-01,3129,종로구,11110000148,직장,서울특별시 종로구 종로33길 15 (연지동),02-747-9557,37.57181311108567,127.00100090217316,일반
부암어린이집,A,우수,우수,우수,우수,2022-07-01,3019,종로구,11110000014,국공립,서울특별시 종로구 세검정로6다길 10-7,02-396-6226,37.60152236,126.9630733,"장애아통합,야간연장"
사직어린이집,A,우수,우수,우수,우수,2020-01-01,3039,종로구,11110000038,국공립,서울특별시 종로구 필운대로1길 16-8,02-720-0798,37.57809877,126.9686864,"장애아통합,야간연장"
삼양어린이집,A,우수,우수,우수,우수,2021-01-01,3129,종로구,11110000176,직장,서울특별시 종로구 종로33길 31,02-760-5081,37.5726123205,127.0010957695,일반
삼청어린이집,B,우수,보통,우수,우수,2022-07-01,3049,종로구,11110000011,국공립,서울특별시 종로구 삼청로7길 26 (팔판동),02-723-0155,37.58400574,126.9804875,야간연장
상록수어린이집,A,우수,우수,우수,우수,2020-01-01,3166,종로구,11110000030,국공립,서울특별시 종로구 송월1길 73-7 상록수어린이집,02-738-1773,37.5727619906,126.9646047637,야간연장
서울경찰청어린이집,A,우수,우수,우수,우수,2023-11-01,3169,종로구,11110000167,직장,서울특별시 종로구 사직로8길 31,02-720-8502,37.56647,126.977963,일반
서울대학교병원어린이집,A,우수,우수,우수,우수,2020-02-01,3085,종로구,11110000083,직장,서울특별시 종로구 동숭3길 40,02-2072-2260,37.57946548,126.9990227,일반
서울지방국세청 우리누리어린이집,A,우수,우수,우수,우수,2021-09-01,3151,종로구,11110000179,직장,서울특별시 종로구 종로5길 86,02-739-5100,37.57413147177976,126.97977086919582,일반
서울청사푸르미어린이집,A,우수,우수,우수,우수,2023-08-01,3171,종로구,11110000122,직장,서울특별시 종로구 세종로 세종대로 209 서울청사 푸르미어린이집,02-737-7327,37.57529731027255,126.9748320559236,야간연장
서울청사한빛어린이집,A,우수,우수,우수,우수,2022-07-01,3171,종로구,11110000079,직장,서울특별시 종로구 세종대로 209 서울청사관리소,02-735-6400,37.57499554246283,126.97514063547618,야간연장
선재어린이집,A,우수,우수,우수,우수,2020-07-01,3144,종로구,11110000177,국공립,서울특별시 종로구 우정국로 51-4,02-720-9770,37.57347189187701,126.98225014135956,야간연장
세종마을어린이집,A,우수,우수,우수,우수,2022-08-01,3034,종로구,11110000017,국공립,서울특별시 종로구 옥인길 89 (옥인동),02-732-3070,37.58195218,126.9639188,야간연장
숭인어린이집,A,우수,우수,우수,우수,2022-07-01,3108,종로구,11110000040,국공립,서울특별시 종로구 지봉로 86 (숭인동),02-743-7527,37.57781735,127.0156145,야간연장
아동회관어린이집,B,우수,보통,우수,우수,2022-06-01,3094,종로구,11110000013,국공립,서울특별시 종로구 지봉로13길 14 아동회관어린이집,02-763-6038,37.57830726,127.0118098,야간연장
아이누리 어린이집,A,우수,우수,우수,우수,2023-12-01,3174,종로구,11110000162,직장,서울특별시 종로구 사직로8길 20 파크팰리스 제1층 제101호,02-6959-7695,37.57393132279893,126.97059029610531,일반
아이소리어린이집,A,우수,우수,우수,우수,2023-01-01,3104,종로구,11110000151,가정,"서울특별시 종로구 지봉로5길 7 103-101(창신동,두산아파트)",02-3672-5011,37.57407935499962,127.01383331012804,일반
안동어린이집,A,우수,우수,우수,우수,2023-01-01,3055,종로구,11110000086,민간,서울특별시 종로구 북촌로7길 3-10,02-743-9307,37.5798836,126.9843648,일반
엄마품어린이집,A,우수,우수,우수,우수,2019-11-01,3010,종로구,11110000066,가정,"서울특별시 종로구 평창문화로 172 102동 106호(평창동, 삼성아파트)",02-379-1317,37.61035089,126.9744434,야간연장
엔젤키즈어린이집,A,우수,우수,우수,우수,2022-09-01,3021,종로구,11110000057,국공립,서울특별시 종로구 자하문로43길 4-13,02-379-5133,37.59853986,126.9605022,야간연장
연동어린이집,A,우수,우수,우수,우수,2022-01-01,3128,종로구,11110000184,국공립,서울특별시 종로구 대학로3길 9 연지동,02-3673-2866,37.57392371531399,127.00140652631974,야간연장
은행나무어린이집,A,우수,우수,우수,우수,2022-09-01,3091,종로구,11110000028,국공립,서울특별시 종로구 낙산5길 33 (창신동),02-744-5420,37.57895144,127.010942,"장애아통합,방과후 통합,야간연장"
인왕어린이집,A,우수,우수,우수,우수,2023-07-01,3024,종로구,11110000034,국공립,서울특별시 종로구 통일로18길 9 인왕산 아이파크단지내,02-738-8577,37.57705710065089,126.95731990254116,야간연장
조은어린이집,A,우수,우수,우수,우수,2020-01-01,3109,종로구,11110000018,국공립,서울특별시 종로구 지봉로12가길 35 (숭인동),02-763-7800,37.57564181,127.0169677,"장애아통합,야간연장"
종교교회어린이집,A,우수,우수,우수,우수,2022-01-01,3173,종로구,11110000058,민간,서울특별시 종로구 사직로8길 48 종교교회내 1층 (도렴동),02-6322-2190,37.57375117,126.973844,야간연장
종로구청직장어린이집,A,우수,우수,우수,우수,2022-05-01,3152,종로구,11110000039,직장,서울특별시 종로구 종로1길 36 대림빌딩,02-720-5852,37.5734646273137,126.97914844618096,야간연장
종로생명숲어린이집,A,우수,우수,우수,우수,2021-09-01,3009,종로구,11110000155,국공립,서울특별시 종로구 평창문화로 73-7 종로생명숲어린이집,02-359-1671,37.60646733045679,126.96817657791692,야간연장
창경어린이집,A,우수,우수,우수,우수,2022-04-01,3073,종로구,11110000159,국공립,서울특별시 종로구 성균관로1길 6-3,02-766-1514,37.58343865092836,126.99778097189912,야간연장
창신어린이집,A,우수,우수,우수,우수,2020-01-01,3105,종로구,11110000012,사회복지법인,서울특별시 종로구 창신5길 22 (창신동),02-743-6302,37.57360468,127.0120168,야간연장
창신제일어린이집,B,보통,우수,우수,우수,2022-04-01,3089,종로구,11110000048,국공립,서울특별시 종로구 낙산성곽동길 69 창신동,02-3675-1084,37.57568463,127.0096935,"야간연장,휴일보육"
천사어린이집,A,우수,우수,우수,우수,2023-08-01,3092,종로구,11110000169,국공립,서울특별시 종로구 낙산길 198 205-101,02-3674-1004,37.5804180113,127.0111852611,야간연장
청운어린이집,B,우수,보통,우수,우수,2022-06-01,3031,종로구,11110000035,국공립,서울특별시 종로구 자하문로35길 21,02-730-9261,37.58408282,126.9705784,야간연장
청정원 종로 어린이집,A,우수,우수,우수,우수,2023-02-01,3130,종로구,11110000181,직장,서울특별시 종로구 창경궁로 120 종로플레이스 2층,02-2231-1896,37.572961897751824,126.9981888022783,일반
초동어린이집,A,우수,우수,우수,우수,2023-12-01,3139,종로구,11110000041,법인?단체등,서울특별시 종로구 돈화문로5가길 23 (돈의동),02-765-6205,37.57174148,126.9912585,장애아통합
한빛어린이집,A,우수,우수,우수,우수,2022-01-01,3112,종로구,11110000016,국공립,서울특별시 종로구 종로65길 10 (숭인동),02-763-6825,37.57485743,127.0199441,야간연장
한숲어린이집,A,우수,우수,우수,우수,2023-02-01,3181,종로구,11110000168,직장,서울특별시 종로구 통일로 134 디타워 돈의문 2층,02-735-1712,37.56686634451361,126.96620127757718,일반
현대다솜어린이집,A,우수,우수,우수,우수,2022-09-01,3058,종로구,11110000153,직장,서울특별시 종로구 창덕궁길 19 현대다솜어린이집,02-746-7601,37.57823397808198,126.98856600832882,일반
현대해상 온마음어린이집,A,우수,우수,우수,우수,2023-07-01,3176,종로구,11110000158,직장,서울특별시 종로구 신문로2가 경희궁1길 9,02-725-5355,37.57113113364561,126.97100796248088,일반
혜화어린이집,A,우수,우수,우수,우수,2023-03-01,3084,종로구,11110000033,국공립,서울특별시 종로구 대학로14길 34,02-742-2694,37.58477571854032,127.0025360774734,야간연장
CJ키즈빌 어린이집,A,우수,우수,우수,우수,2023-08-01,4560,중구,11140000085,직장,서울특별시 중구 동호로 330 (쌍림동),02-722-1070,37.56396399,127.0032756,일반
GKL행복어린이집,A,우수,우수,우수,우수,2019-01-01,4637,중구,11140000104,직장,서울특별시 중구 남대문로5가 한강대로 416 서울스퀘어 5층,02-6456-8816,37.5555048939659,126.97375281464888,일반
IBK 참! 좋은 어린이집,A,우수,우수,우수,우수,2019-01-01,4538,중구,11140000108,직장,서울특별시 중구 을지로2가 을지로 82,02-2031-3394,37.5657063891,126.9870828853,일반
LG서울역어린이집,A,우수,우수,우수,우수,2020-02-01,4637,중구,11140000109,직장,서울특별시 중구 남대문로5가 후암로 98 2층,02-3789-1002,37.55395945981493,126.9747967942587,일반
SKT행복날개어린이집,A,우수,우수,우수,우수,2021-07-01,4539,중구,11140000057,직장,서울특별시 중구 을지로2가 을지로 65 SK-T타워 3층,02-6100-0115,37.56647,126.9851118,일반
SK브로드밴드 행복한 어린이집,A,우수,우수,우수,우수,2021-07-01,4637,중구,11140000099,직장,서울특별시 중구 남대문로5가 퇴계로 24 SK남산그린빌딩 4층,02-6266-2300,37.55661899726137,126.97596160238535,야간연장
가명어린이집,A,우수,우수,우수,우수,2020-01-01,4506,중구,11140000014,법인?단체등,서울특별시 중구 청파로 447-1,02-365-7021,37.5589741,126.9670146,장애아통합
경동어린이집,A,우수,우수,우수,우수,2022-01-01,4614,중구,11140000053,법인?단체등,서울특별시 중구 장충단로 204,02-2272-7158,37.56319426,127.0073109,일반
교원&하나투어 공동직장어린이집,B,우수,우수,보통,보통,2020-09-01,4539,중구,11140000113,직장,서울특별시 중구 을지로2가 을지로 55 교원명동빌딩 3층,02-779-6118,37.56647,126.977963,일반
꿈나무어린이집,A,우수,우수,우수,우수,2020-03-01,4572,중구,11140000092,가정,서울특별시 중구 청계천로 400 101동 709호,02-2231-3132,37.57086989892385,127.02005845359363,일반
남산숲어린이집,A,우수,우수,우수,우수,2022-08-01,4595,중구,11140000023,국공립,서울특별시 중구 동호로5길 193 남산숲어린이집 (신당동),02-2234-2753,37.54652787,127.0089375,"야간연장,휴일보육"
남산타운어린이집,D,우수,우수,우수,우수,2022-12-01,4595,중구,11140000079,국공립,서울특별시 중구 다산로 32 (신당동),02-2256-5114,37.54953333,127.0118978,야간연장
농협중앙회 별관 어린이집,A,우수,우수,우수,우수,2023-02-01,4516,중구,11140000118,직장,서울특별시 중구 새문안로 16 농협중앙회 별관 2층,02-2080-8135,37.56631941482,126.96772109776006,일반
농협중앙회어린이집,A,우수,우수,우수,우수,2021-08-01,4516,중구,11140000087,직장,서울특별시 중구 새문안로 16,02-2080-4941,37.5664636169861,126.967736925035,일반
늘푸른어린이집,A,우수,우수,우수,우수,2023-08-01,4500,중구,11140000110,국공립,서울특별시 중구 만리동2가 만리재로21길 9,02-2088-1318,37.5528170627,126.9630705681,일반
다산어린이집,B,우수,우수,우수,우수,2022-12-01,4604,중구,11140000005,국공립,서울특별시 중구 동호로15길 50 (신당동),02-2232-6905,37.55432868,127.0082457,"장애아통합,방과후 통합,야간연장"
다솜어린이집,A,우수,우수,우수,우수,2021-08-01,4593,중구,11140000028,국공립,"서울특별시 중구 동호로10길 30 103동 101호(신당동, 약수하이츠)",02-2236-9121,37.55472522,127.0146044,일반
단우물 어린이집,A,우수,우수,우수,우수,2022-07-01,4576,중구,11140000006,국공립,서울특별시 중구 다산로48길 33 단우물어린이집(황학동),02-2234-9125,37.56751684,127.0181216,"야간연장,휴일보육"
동화나라어린이집,A,우수,우수,우수,우수,2022-01-01,4584,중구,11140000025,국공립,서울특별시 중구 다산로38길 80 (신당동),02-2236-5156,37.56154523,127.0192628,"장애아통합,야간연장"
동화어린이집,A,우수,우수,우수,우수,2019-12-01,4587,중구,11140000091,국공립,서울특별시 중구 청구로 64 청구e편한세상아파트 106동 1층,02-2234-1226,37.56000212173593,127.0155196287449,야간연장
롯데mom편한어린이집,A,우수,우수,우수,우수,2023-12-01,4632,중구,11140000105,직장,"서울특별시 중구 회현동1가 소공로 35 남산롯데캐슬아이리스 210호, 211호",02-774-4498,37.55822380859089,126.9817467235163,일반
롯데캐슬어린이집,A,우수,우수,우수,우수,2023-01-01,4572,중구,11140000065,국공립,서울특별시 중구 청계천로 400 롯데캐슬베네치아아파트 103동7층관리동 (황학동),02-2048-5757,37.57089532,127.0213261,일반
리틀포도나무어린이집,A,우수,우수,우수,우수,2020-02-01,4582,중구,11140000086,민간,서울특별시 중구 퇴계로90길 74 래미안하이베르아파트 관리동1층,02-2233-3515,37.5616162065133,127.022623804695,일반
마주어린이집,C,보통,우수,보통,개선필요,2023-04-01,4502,중구,11140000090,가정,서울특별시 중구 중림로 10 삼성사이버빌리지 112-102,02-6324-6325,37.557582837103226,126.96560417782273,야간연장
만리어린이집,A,우수,우수,우수,우수,2022-06-01,4500,중구,11140000020,국공립,서울특별시 중구 만리동2가 만리재로 175 (만리동2가),02-312-8718,37.5530803784,126.9637947247,야간연장
명동하나금융그룹직장어린이집,A,우수,우수,우수,우수,2020-02-01,4538,중구,11140000112,직장,서울특별시 중구 을지로2가 을지로 66 하나금융그룹 명동사옥 2층,02-319-9606,37.56555479225988,126.98513267110089,일반
무지개어린이집,A,우수,우수,우수,우수,2022-09-01,4588,중구,11140000094,가정,"서울특별시 중구 청구로1길 23 113동 103호(신당동,신당삼성아파트)",02-2252-4777,37.558563761085765,127.01843027609456,야간연장
미담어린이집,A,우수,우수,우수,우수,2022-03-01,4575,중구,11140000107,국공립,서울특별시 중구 퇴계로 447,02-2231-7227,37.5660402677,127.0217233062,일반
서소문삼성어린이집,A,우수,우수,우수,우수,2023-11-01,4523,중구,11140000034,직장,"서울특별시 중구 을지로1가 을지로 19 2,3,5층 서소문삼성어린이집",02-757-5463,37.566295092422,126.97993428392319,일반
서울시청직장어린이집,A,우수,우수,우수,우수,2019-01-01,4515,중구,11140000048,직장,서울특별시 중구 서소문로11길 24 5-1번지 서울시청직장어린이집,02-775-5491,37.56450641,126.9760072,"방과후 통합,야간연장"
신당5동어린이집,B,우수,우수,보통,우수,2022-07-01,4583,중구,11140000021,국공립,서울특별시 중구 퇴계로88가길 8-10,02-2234-2745,37.56299121,127.0207595,야간연장
신당동어린이집,A,우수,우수,우수,우수,2022-08-01,4610,중구,11140000015,국공립,서울특별시 중구 청구로8길 41 (신당동),02-2233-9478,37.56223299,127.0141014,야간연장
신당삼성어린이집,A,우수,우수,우수,우수,2020-01-01,4598,중구,11140000035,민간,서울특별시 중구 동호로15길 21-36,02-2233-6925,37.55576832,127.0092927,일반
신당중앙어린이집,A,우수,우수,우수,우수,2023-02-01,4608,중구,11140000009,법인?단체등,서울특별시 중구 다산로 165 (신당동),02-2234-7589,37.55831345,127.0121588,야간연장
신당하나어린이집,A,우수,우수,우수,우수,2020-02-01,4580,중구,11140000115,국공립,서울특별시 중구 왕십리로 407 신당파인힐하나유보라 103동 1층,02-2256-7646,37.56430066488869,127.02515009579788,일반
신일교회어린이집,B,우수,보통,우수,우수,2022-08-01,4590,중구,11140000056,법인?단체등,서울특별시 중구 다산로 128-9,02-2253-1159,37.55500747,127.0115053,야간연장
신한꿈나무어린이집,A,우수,우수,우수,우수,2020-03-01,4542,중구,11140000111,직장,서울특별시 중구 을지로2가 삼일대로 358 신한L타워 3층,02-6250-8091,37.5664885611,126.9881059884,야간연장
아기사랑어린이집,B,우수,보통,우수,우수,2020-02-01,4586,중구,11140000043,국공립,서울특별시 중구 다산로32길 25 (신당동),02-2253-1467,37.56085349,127.0158287,야간연장
아이다움어린이집,A,우수,우수,우수,우수,2020-01-01,4581,중구,11140000116,가정,서울특별시 중구 난계로 130 102동 102호,02-2233-7942,37.56350229819328,127.02447778826442,일반
약수교회어린이집,A,우수,우수,우수,우수,2022-06-01,4596,중구,11140000010,법인?단체등,서울특별시 중구 다산로8길 32 (신당동),02-2233-5131,37.55235768,127.011203,야간연장
약수어린이집,A,우수,우수,우수,우수,2023-02-01,4597,중구,11140000019,국공립,서울특별시 중구 다산로6길 15 (신당동),02-2252-7672,37.55230956,127.0092242,"장애아통합,야간연장"
엄마품어린이집,C,개선필요,보통,우수,보통,2022-03-01,4588,중구,11140000082,가정,"서울특별시 중구 청구로1길 23 108동 102호(신당동, 삼성아파트)",02-6365-2004,37.55818528,127.0179656,일반
엔젤어린이집,A,우수,우수,우수,우수,2022-08-01,4502,중구,11140000060,가정,"서울특별시 중구 중림로 10 106동 103호(중림동, 사이버빌리지)",02-364-3642,37.5581639,126.9652466,야간연장
영락교회어린이집,B,우수,우수,보통,우수,2022-06-01,4552,중구,11140000018,법인?단체등,서울특별시 중구 수표로 33 (저동2가),02-2266-5878,37.5632088,126.9891675,야간연장
예금보험공사어린이집,A,우수,우수,우수,우수,2022-03-01,4521,중구,11140000098,직장,서울특별시 중구 청계천로 30 2층,02-318-3701,37.568538896462414,126.98074856812958,일반
우리누리 어린이집,B,보통,우수,우수,보통,2023-03-01,4551,중구,11140000066,직장,서울특별시 중구 삼일대로 340 나라키움빌딩 2층 (저동1가),02-2260-0257,37.5652146,126.9879156,일반
우리은행어린이집,A,우수,우수,우수,우수,2020-01-01,4632,중구,11140000106,직장,서울특별시 중구 회현동1가 소공로 51,02-2002-3095,37.559438353357024,126.98175095441134,일반
을지로 하나금융그룹 직장어린이집,A,우수,우수,우수,우수,2022-04-01,4539,중구,11140000100,직장,서울특별시 중구 을지로2가 을지로 55 하나은행 2층,02-779-6227,37.56640879202888,126.98402663566662,야간연장
중구청직장어린이집,A,우수,우수,우수,우수,2023-02-01,4559,중구,11140000007,국공립,서울특별시 중구 마른내로12길 17-19,02-3396-4049,37.56384837392489,127.00120016320808,야간연장
중림어린이집,A,우수,우수,우수,우수,2020-01-01,4508,중구,11140000011,국공립,서울특별시 중구 만리재로35길 12 (만리동1가),02-364-7534,37.55562297,126.9677162,"장애아통합,야간연장"
청구어린이집,A,우수,우수,우수,우수,2022-09-01,4592,중구,11140000016,국공립,서울특별시 중구 다산로24길 81 (신당동),02-2236-1466,37.55718798,127.0166839,"장애아통합,야간연장,휴일보육"
충무어린이집,A,우수,우수,우수,우수,2020-01-01,4618,중구,11140000008,국공립,서울특별시 중구 동호로27길 21 (묵정동),02-2264-3679,37.56024397,127.0017202,"장애아통합,야간연장"
키즈숲 어린이집,A,우수,우수,우수,우수,2020-03-01,4595,중구,11140000097,가정,"서울특별시 중구 다산로 32 15동 101호(신당동, 남산타운)",02-2256-0523,37.54712592365811,127.00558178427904,일반
키즈일레븐어린이집,A,우수,우수,우수,우수,2021-04-01,4637,중구,11140000117,직장,서울특별시 중구 한강대로 416 2층,02-6456-8560,37.55583997172427,126.9733362169908,일반
푸르지오비씨 어린이집,A,우수,우수,우수,우수,2020-09-01,4548,중구,11140000114,직장,서울특별시 중구 을지로4가 을지로 170,02-2288-2761,37.56632830333276,126.99737682595428,일반
필동어린이집,A,우수,우수,우수,우수,2022-08-01,4626,중구,11140000012,국공립,서울특별시 중구 퇴계로36가길 60 (필동2가),02-2274-2268,37.5576761,126.9954627,야간연장
한솔어린이집,A,우수,우수,우수,우수,2019-09-01,4595,중구,11140000036,민간,서울특별시 중구 다산로 32 남산타운 단지내  한솔어린이집,02-2256-0330,37.54916083,127.0093802,일반
한화태평로어린이집,A,우수,우수,우수,우수,2022-04-01,4525,중구,11140000101,직장,서울특별시 중구 태평로2가 세종대로 92 4층,02-6366-7120,37.56423453944913,126.97757093345318,일반
해피맘어린이집,A,우수,우수,우수,우수,2020-03-01,4572,중구,11140000093,가정,서울특별시 중구 청계천로 400 롯데캐슬베네치아 105동 704호,02-2048-5756,37.570813133291054,127.02146216177962,일반
햇살어린이집,A,우수,우수,우수,우수,2022-06-01,4607,중구,11140000084,가정,"서울특별시 중구 동호로14길 11-8 B동 102호(신당동, 뉴타운빌)",02-2236-4558,37.55653529,127.010497,야간연장
황학어린이집,A,우수,우수,우수,우수,2022-08-01,4574,중구,11140000017,국공립,서울특별시 중구 난계로15길 23 (황학동),02-2234-6840,37.5687791824,127.0223262912,"방과후 통합,야간연장"
회현어린이집,A,우수,우수,우수,우수,2022-09-01,4633,중구,11140000013,국공립,서울특별시 중구 퇴계로12가길 23 (회현동1가),02-757-0896,37.55595582,126.9808257,"장애아통합,방과후 통합,야간연장"
DB손해보험 아이사랑 어린이집,A,우수,우수,우수,우수,2023-09-01,4323,용산구,11170000181,직장,서울특별시 용산구 후암로 107 게이트웨이타워 3층,02-771-8607,37.55346138877104,126.9735634051436,일반
IBK 참!좋은 어린이집,A,우수,우수,우수,우수,2019-12-01,4419,용산구,11170000167,직장,서울특별시 용산구 한남대로 72,02-798-3360,37.5350669793229,127.007056496912,일반
고운꿈어린이집,A,우수,우수,우수,우수,2023-01-01,4421,용산구,11170000175,가정,"서울특별시 용산구 이촌로 181 106동 102호(이촌동, 한강대우아파트)",02-797-3797,37.5221536300623,126.97066188802754,일반
국립중앙박물관 해누림 어린이집,A,우수,우수,우수,우수,2021-05-01,4383,용산구,11170000207,직장,서울특별시 용산구 서빙고로 137 국립중앙박물관,02-2077-9048,37.5234949563665,126.97760123514485,일반
국방부청사어린이집,A,우수,우수,우수,우수,2023-08-01,4383,용산구,11170000128,직장,서울특별시 용산구 이태원로 22 국방부 (용산동3가),02-798-0097,37.53358278,126.9776714,야간연장
꼬마성어린이집,A,우수,우수,우수,우수,2021-07-01,4393,용산구,11170000159,가정,"서울특별시 용산구 장문로6길 76 1단지 1-3 (동빙고동,용산푸르지오파크타운)",02-794-2796,37.52160605106492,126.99464383133594,야간연장
꿈꾸는어린이집,A,우수,우수,우수,우수,2021-02-01,4319,용산구,11170000035,가정,"서울특별시 용산구 효창원로69길 57 101동 104호(효창동, 효창베네스빌)",02-719-6545,37.54166978,126.9612742,일반
꿈나무어린이집,A,우수,우수,우수,우수,2022-12-01,4316,용산구,11170000195,국공립,서울특별시 용산구 원효로1가 백범로 329 꿈나무어린이집,02-706-2468,37.53839694143437,126.96579265701348,장애아통합
꿈동이어린이집,A,우수,우수,우수,우수,2022-04-01,4423,용산구,11170000054,가정,"서울특별시 용산구 이촌로87길 21 101동 101호(이촌동, 이촌코오롱)",02-795-5475,37.52000465,126.9786745,일반
꿈밭어린이집,B,우수,우수,보통,우수,2022-09-01,4423,용산구,11170000060,민간,서울특별시 용산구 이촌로81길 34 꿈밭어린이집,02-792-8645,37.52000465,126.9786745,일반
남산중앙어린이집,A,우수,우수,우수,우수,2023-07-01,4328,용산구,11170000024,법인?단체등,서울특별시 용산구 두텁바위로60길 74 남산중앙교회내 (후암동),02-754-9919,37.54829648,126.9835883,야간연장
노벨어린이집,A,우수,우수,우수,우수,2021-07-01,4331,용산구,11170000164,가정,서울특별시 용산구 후암로22길 10 104호(후암동),02-796-7270,37.5513978116851,126.977294962797,일반
누리터어린이집,A,우수,우수,우수,우수,2023-12-01,4315,용산구,11170000112,가정,"서울특별시 용산구 백범로90길 74 102동 102호(문배동, 용산이안아파트)",02-6401-2379,37.5367195,126.9685765,일반
늘봄어린이집,B,우수,보통,우수,우수,2022-09-01,4374,용산구,11170000193,국공립,서울특별시 용산구 이촌로2가길 122 105동 106호,02-702-2522,37.56647,126.977963,일반
늘해랑어린이집,A,우수,우수,우수,우수,2021-02-01,4380,용산구,11170000124,가정,"서울특별시 용산구 이촌로29길 21-7 101동 101호(한강로3가, 우림필유아파트)",02-792-4683,37.52546826,126.9597476,일반
더프라임어린이집,A,우수,우수,우수,우수,2023-02-01,4315,용산구,11170000184,민간,"서울특별시 용산구 원효로90길 11 (원효로1가, 용산더프라임)",02-712-1880,37.54039598047992,126.96971637235517,일반
도원삼성어린이집,A,우수,우수,우수,우수,2020-01-01,4356,용산구,11170000145,가정,"서울특별시 용산구 새창로 70 112동 104호(도원동, 삼성래미안아파트)",02-712-4242,37.5383072,126.9552593,일반
도원어린이집,A,우수,우수,우수,우수,2022-07-01,4356,용산구,11170000022,국공립,서울특별시 용산구 효창원로37마길 8 도원어린이집 (용문동),02-701-1284,37.53825626,126.9585708,야간연장
동부이촌어린이집,A,우수,우수,우수,우수,2023-01-01,4421,용산구,11170000203,국공립,서울특별시 용산구 이촌로 193 관리동 1층,02-797-7857,37.5215935377,126.9683936564,일반
동빙고어린이집,A,우수,우수,우수,우수,2022-12-01,4398,용산구,11170000027,국공립,서울특별시 용산구 녹사평대로14길 7 (동빙고동),02-795-3935,37.52357987,126.9939889,"장애아통합,야간연장"
딩동댕어린이집,B,보통,우수,보통,우수,2022-09-01,4358,용산구,11170000177,가정,"서울특별시 용산구 효창원로 17 101동 101호(산천동,리버힐삼성아파트)",02-6010-5437,37.534997809438096,126.94909182213824,일반
맑은숲어린이집,A,우수,우수,우수,우수,2023-05-01,4417,용산구,11170000198,국공립,서울특별시 용산구 한남대로40길 76 맑은숲어린이집,02-798-3500,37.5450381635,127.0032951499,야간연장
맘앤키즈어린이집,B,우수,우수,보통,우수,2021-07-01,4358,용산구,11170000141,가정,"서울특별시 용산구 효창원로 17 107동 105호(산천동, 삼성리버힐아파트)",02-719-4183,37.53487888,126.9508027,일반
목멱어린이집,A,우수,우수,우수,우수,2021-02-01,4346,용산구,11170000208,국공립,서울특별시 용산구 회나무로12나길 10,02-6954-2057,37.53904801482917,126.99092548482405,일반
미래어린이집,A,우수,우수,우수,우수,2022-04-01,4331,용산구,11170000180,국공립,서울특별시 용산구 후암로16나길 13,02-752-5506,37.54903665238563,126.97830878870784,야간연장
반석어린이집,B,보통,우수,보통,보통,2023-03-01,4312,용산구,11170000069,민간,서울특별시 용산구 효창원로 178 (청파동3가),02-719-9271,37.54361561,126.9626628,일반
백송어린이집,A,우수,우수,우수,우수,2022-07-01,4312,용산구,11170000036,국공립,서울특별시 용산구 효창원로76길 25-6,02-718-3103,37.54354693,126.9633574,"장애아통합,야간연장"
보광 어린이집,A,우수,우수,우수,우수,2022-06-01,4415,용산구,11170000004,국공립,서울특별시 용산구 보광로12가길 48-4 보광 어린이집 (보광동),02-795-2844,37.52879893,127.000913,"장애아통합,야간연장"
사랑꿈어린이집,A,우수,우수,우수,우수,2023-09-01,4368,용산구,11170000200,국공립,서울특별시 용산구 원효로 216 관리동 1층,070-7767-6300,37.5367226428,126.9665271675,일반
사랑나무어린이집,A,우수,우수,우수,우수,2023-11-01,4336,용산구,11170000199,가정,서울특별시 용산구 후암로 4-8 후암동,02-2213-2929,37.54635357009264,126.97881652121346,야간연장
사무엘 어린이집,A,우수,우수,우수,우수,2022-07-01,4351,용산구,11170000028,법인?단체등,서울특별시 용산구 이태원로15길 1 (이태원동),02-796-7470,37.53458993,126.9902135,야간연장
삼각지어린이집,C,개선필요,우수,우수,우수,2022-12-01,4375,용산구,11170000210,국공립,"서울특별시 용산구 백범로99길 40 1,2층",02-797-9424,37.53582388324484,126.97164618985347,일반
삼일어린이집,A,우수,우수,우수,우수,2020-02-01,4378,용산구,11170000201,직장,"서울특별시 용산구 한강대로 95 B동 4층 410호(한강로2가,래미안용산)",02-794-8831,37.52954731337001,126.96739471952138,일반
상록어린이집,A,우수,우수,우수,우수,2022-09-01,4319,용산구,11170000059,민간,서울특별시 용산구 백범로45길 4 (효창동),02-715-1009,37.54095702,126.9583035,일반
새꿈어린이집,B,우수,우수,보통,우수,2020-01-01,4323,용산구,11170000077,국공립,서울특별시 용산구 후암로57길 26 (동자동),02-775-6514,37.55238518,126.9733573,야간연장
새날어린이집,A,우수,우수,우수,우수,2020-01-01,4354,용산구,11170000073,민간,서울특별시 용산구 새창로8길 7 삼성래미안아파트 2단지내 관리동1층 (도원동),02-718-6635,37.5383072,126.9552593,일반
새둥지어린이집,A,우수,우수,우수,우수,2022-03-01,4422,용산구,11170000191,가정,서울특별시 용산구 이촌로65가길 3 110동 101호,02-796-5025,37.5223116372,126.9719635243,일반
새랑꿈이랑 어린이집,B,우수,우수,우수,보통,2022-04-01,4354,용산구,11170000080,민간,서울특별시 용산구 새창로 70 삼성래미안아파트 단지내 (도원동),02-3273-2992,37.5383072,126.9552593,일반
새순어린이집,A,우수,우수,우수,우수,2022-09-01,4361,용산구,11170000192,국공립,"서울특별시 용산구 원효로35길 37-7 1,2층",02-716-7930,37.5348941342334,126.95519141061648,야간연장
새싹어린이집,A,우수,우수,우수,우수,2023-02-01,4364,용산구,11170000010,국공립,서울특별시 용산구 원효로67길 13 (원효로2가),02-701-7289,37.53756691,126.9638906,야간연장
샘물어린이집,A,우수,우수,우수,우수,2021-07-01,4361,용산구,11170000188,국공립,서울특별시 용산구 원효로4가 원효로19길 49,02-701-0505,37.53421027177274,126.9545941511218,장애아통합
생각이자라는어린이집,A,우수,우수,우수,우수,2023-05-01,4381,용산구,11170000163,가정,"서울특별시 용산구 이촌로 100-8 103동 102호 (이촌제2동, 동아그린아파트)",02-6352-3030,37.5172575600838,126.978274263952,일반
서계어린이집,A,우수,우수,우수,우수,2022-01-01,4300,용산구,11170000005,국공립,서울특별시 용산구 청파로93길 25 서계어린이집,02-715-6046,37.55352595,126.9682985,야간연장
서머힐어린이집,A,우수,우수,우수,우수,2023-07-01,4392,용산구,11170000153,가정,"서울특별시 용산구 장문로 27 상가동, 102호 (이태원동, 청화아파트)",02-6241-0081,37.52910835195778,126.9936735717406,야간연장
서빙고어린이집,B,우수,우수,우수,보통,2023-09-01,4398,용산구,11170000155,국공립,서울특별시 용산구 녹사평대로 66 대우푸르지오파크타운 208동앞,02-749-6937,37.52519906,126.9947308,"장애아통합,야간연장"
소월어린이집,A,우수,우수,우수,우수,2023-11-01,4339,용산구,11170000007,국공립,서울특별시 용산구 신흥로18길 3-5,02-749-5391,37.54613603,126.9858175,야간연장
솔어린이집,A,우수,우수,우수,우수,2019-08-01,4394,용산구,11170000026,국공립,서울특별시 용산구 장문로 95 (보광동),02-797-6858,37.52630015,127.0001453,야간연장
숙명여자대학교어린이집,C,우수,우수,우수,개선필요,2022-09-01,4310,용산구,11170000182,직장,서울특별시 용산구 청파로47길 100 사회교육관 1층(숙명여자대학교 제2캠퍼스),02-2077-7952,37.54547273221996,126.96507482960452,일반
숲속키즈어린이집,C,개선필요,우수,우수,우수,2022-04-01,4354,용산구,11170000146,가정,"서울특별시 용산구 새창로 70 103동 102호 (도원동,삼성래미안아파트)",02-702-5437,37.53643829,126.9591188,야간연장
스타터즈어린이집,B,우수,보통,우수,보통,2021-09-01,4427,용산구,11170000092,민간,서울특별시 용산구 이촌로 174 동부센트레빌 105,02-749-8247,37.52095297,126.9665017,일반
신태양 어린이집,A,우수,우수,우수,우수,2023-02-01,4300,용산구,11170000079,민간,서울특별시 용산구 만리재로 178 (서계동),02-702-0338,37.55399714,126.9660274,일반
아모레퍼시픽 서울어린이집,A,우수,우수,우수,우수,2019-01-01,4386,용산구,11170000197,직장,서울특별시 용산구 한강대로 100 (주)아모레퍼시픽 2층,02-709-5193,37.5287908187,126.9686757151,일반
아이뜰어린이집,A,우수,우수,우수,우수,2022-12-01,4422,용산구,11170000138,가정,서울특별시 용산구 이촌로71길 10 210동 103호,02-749-1684,37.521348924,126.9701584601,일반
아이제일어린이집,A,우수,우수,우수,우수,2023-11-01,4348,용산구,11170000119,직장,서울특별시 용산구 이태원로49길 24-7 아이제일어린이집 (한남동),02-797-8551,37.53746496,126.9992936,일반
엘지유플러스어린이집,A,우수,우수,우수,우수,2023-01-01,4379,용산구,11170000094,직장,서울특별시 용산구 한강로3가 한강대로 32,070-8277-4119,37.52384284000428,126.9635283068631,일반
영락어린이집,A,우수,우수,우수,우수,2023-02-01,4336,용산구,11170000030,사회복지법인,서울특별시 용산구 후암로4길 70 (후암동),02-775-2157,37.54843004,126.9813118,장애아통합
영주어린이집,A,우수,우수,우수,우수,2023-01-01,4336,용산구,11170000109,민간,서울특별시 용산구 두텁바위로 91 (후암동),02-318-2242,37.54743044,126.9816898,일반
예꿈어린이집,A,우수,우수,우수,우수,2023-01-01,4428,용산구,11170000126,가정,서울특별시 용산구 이촌로 347 1동 102호,070-8776-7070,37.5190384636,126.9896383594,일반
완두콩어린이집,A,우수,우수,우수,우수,2022-03-01,4304,용산구,11170000091,가정,서울특별시 용산구 청파로71길 58 아이딜아파트 101호 (청파동1가),02-3272-3368,37.54942454,126.9669722,일반
용문어린이집,A,우수,우수,우수,우수,2022-12-01,4363,용산구,11170000196,국공립,서울특별시 용산구 효창원로 88 브라운스톤용산 104-103,02-711-3136,37.56647,126.977963,일반
용산교회어린이집,A,우수,우수,우수,우수,2022-07-01,4316,용산구,11170000008,법인?단체등,서울특별시 용산구 원효로1가 백범로77길 36,02-3272-9521,37.53982444,126.9655838,야간연장
용산구청직장어린이집,B,우수,우수,우수,우수,2021-02-01,4390,용산구,11170000140,직장,서울특별시 용산구 녹사평대로 150 종합행정타운 1층 (이태원동),02-794-2543,37.53244208,126.9903466,일반
용산소방서직장어린이집,A,우수,우수,우수,우수,2021-02-01,4375,용산구,11170000206,직장,서울특별시 용산구 한강대로 167 용산소방서,02-749-6034,37.53408944063891,126.971578961863,일반
용산어린이집,A,우수,우수,우수,우수,2022-01-01,4386,용산구,11170000021,국공립,서울특별시 용산구 한강로2가 한강대로38길 28 용산어린이집,02-795-0432,37.528142242670505,126.96922807094676,"야간연장,시간제보육"
용산캐슬어린이집,A,우수,우수,우수,우수,2021-02-01,4317,용산구,11170000205,국공립,"서울특별시 용산구 백범로 313 키즈클럽(효창동,롯데캐슬센터포레)",02-712-7942,37.53981745015118,126.9630735859234,일반
원효루미니어린이집,A,우수,우수,우수,우수,2023-09-01,4314,용산구,11170000213,국공립,서울특별시 용산구 원효로97길 15 1층,02-713-4777,37.54145907380427,126.96938101184236,일반
원효어린이집,A,우수,우수,우수,우수,2022-06-01,4363,용산구,11170000014,국공립,서울특별시 용산구 원효로41가길 14-19,02-704-2463,37.53480088,126.9566433,야간연장
이촌어린이집,B,우수,우수,보통,우수,2022-01-01,4374,용산구,11170000020,국공립,서울특별시 용산구 이촌로14길 11-22,02-713-9920,37.52707429558434,126.9544762958136,"장애아통합,야간연장"
이태원삼성어린이집,A,우수,우수,우수,우수,2020-01-01,4349,용산구,11170000051,민간,서울특별시 용산구 이태원로27길 34-30,02-3785-2478,37.53532514,126.9953858,일반
이태원어린이집,A,우수,우수,우수,우수,2022-01-01,4351,용산구,11170000019,국공립,서울특별시 용산구 녹사평대로40나길 38-3,02-798-2592,37.53627931,126.9888363,야간연장
절제어린이집,B,우수,우수,우수,보통,2023-12-01,4324,용산구,11170000012,사회복지법인,서울특별시 용산구 후암로57길 57 (동자동),02-771-4937,37.55092073,126.9741571,야간연장
즐거운어린이집,B,보통,우수,우수,우수,2020-01-01,4421,용산구,11170000162,가정,서울특별시 용산구 이촌로 201 202동 101호(한가람아파트),02-792-4656,37.52134980870069,126.9701554373006,일반
지구촌어린이집,A,우수,우수,우수,우수,2023-03-01,4346,용산구,11170000185,국공립,서울특별시 용산구 회나무로28길 13,02-797-7664,37.539379673754325,126.99219724016912,"야간연장,시간제보육"
청운어린이집,B,우수,우수,우수,보통,2021-02-01,4306,용산구,11170000061,민간,서울특별시 용산구 효창원로94길 23 (청파동1가),02-715-1657,37.54828177,126.9647823,야간연장
청파어린이집,A,우수,우수,우수,우수,2019-09-01,4309,용산구,11170000011,국공립,서울특별시 용산구 청파로49길 19 (청파동2가),02-716-7998,37.54528251,126.9690391,야간연장
청화어린이집,B,우수,보통,우수,우수,2021-01-01,4416,용산구,11170000049,가정,"서울특별시 용산구 보광로 14 A동 108호(보광동, 신동아1차아파트)",02-3785-1684,37.52574417,127.0017389,일반
초록어린이집,A,우수,우수,우수,우수,2023-08-01,4421,용산구,11170000171,가정,"서울특별시 용산구 이촌로 181 108동 103호(이촌동, 한강대우아파트)",02-790-2221,37.52243120840031,126.97093779275336,일반
큰나래어린이집,A,우수,우수,우수,우수,2022-06-01,4387,용산구,11170000209,국공립,"서울특별시 용산구 서빙고로 17 102동 1,2,3층",02-797-7703,37.52525530284135,126.9678957636705,장애아통합
푸른꿈어린이집,B,우수,보통,우수,우수,2021-08-01,4355,용산구,11170000190,국공립,"서울특별시 용산구 백범로 260 효창파크푸르지오아파트 104동, 1층",02-719-9989,37.54023934237648,126.95833237770782,야간연장
푸른숲속어린이집,A,우수,우수,우수,우수,2021-03-01,4358,용산구,11170000122,가정,"서울특별시 용산구 효창원로 17 104동 103호(산천동, 리버힐삼성아파트)",02-701-5437,37.53487888,126.9508027,일반
하늘빛어린이집,A,우수,우수,우수,우수,2020-01-01,4408,용산구,11170000037,민간,서울특별시 용산구 우사단로10길 115 765-23,02-796-1689,37.53142258,127.0014234,일반
하랑어린이집,A,우수,우수,우수,우수,2023-08-01,4392,용산구,11170000157,가정,서울특별시 용산구 장문로 27 청화아파트 3동 103호,02-797-3103,37.53075295722796,126.99475612718264,일반
하연어린이집,A,우수,우수,우수,우수,2022-03-01,4307,용산구,11170000118,가정,서울특별시 용산구 효창원로86라길 31-10 현대휴먼101호 (청파동1가),02-3273-3276,37.548094,126.9666963,야간연장
한강로어린이집,A,우수,우수,우수,우수,2022-08-01,4385,용산구,11170000127,국공립,서울특별시 용산구 서빙고로 35 111호~113호(용산시티파크1단지),02-790-8150,37.52550727,126.9652136,야간연장
한남어린이집,B,우수,우수,보통,우수,2023-09-01,4400,용산구,11170000038,국공립,서울특별시 용산구 대사관로5길 1 (한남동),02-749-0824,37.53453304,127.0004722,"장애아통합,야간연장"
해늘어린이집,A,우수,우수,우수,우수,2023-01-01,4381,용산구,11170000204,국공립,"서울특별시 용산구 이촌로34길 29 이촌동, 현대한강아파트 관리동",02-711-7847,37.5236368943,126.9566639649,일반
해방어린이집,A,우수,우수,우수,우수,2022-01-01,4338,용산구,11170000023,국공립,서울특별시 용산구 소월로20길 43 해방어린이집 (용산동2가),02-795-8450,37.54428402,126.9851444,야간연장
해솔어린이집,A,우수,우수,우수,우수,2022-03-01,4394,용산구,11170000071,가정,서울특별시 용산구 장문로19길 31,02-790-8137,37.52636225932999,126.99859719537277,일반
햇빛어린이집,A,우수,우수,우수,우수,2022-06-01,4306,용산구,11170000034,법인?단체등,서울특별시 용산구 효창원로86가길 28 (청파동1가),02-706-1344,37.54820834,126.9653491,"장애아통합,야간연장"
햇살꼬마숲어린이집,A,우수,우수,우수,우수,2020-03-01,4368,용산구,11170000016,가정,"서울특별시 용산구 원효로 216 109동 104호(신계동, 용산E편한세상)",02-714-3151,37.53672264278031,126.9665271674788,일반
행복한어린이집,A,우수,우수,우수,우수,2023-03-01,4368,용산구,11170000158,민간,서울특별시 용산구 원효로 216 신계동49 이편한테마트 1층 101호,02-711-6401,37.533969637857474,126.9552292538402,일반
효창어린이집,A,우수,우수,우수,우수,2023-09-01,4319,용산구,11170000063,민간,서울특별시 용산구 효창원로69길 14-3 (효창동),02-711-5408,37.53984324,126.9621821,일반
후암어린이집,A,우수,우수,우수,우수,2022-01-01,4335,용산구,11170000009,국공립,서울특별시 용산구 두텁바위로1길 86 (후암동),02-752-7223,37.54765193,126.9758361,"야간연장,시간제보육"
건영아이자람어린이집,C,보통,보통,개선필요,보통,2022-06-01,4800,성동구,11200000136,가정,"서울특별시 성동구 동일로 263 102동 101호(송정동, 건영아파트)",02-466-8417,37.55592699,127.0708094,일반
고운꽃뜰 어린이집,A,우수,우수,우수,우수,2023-08-01,4713,성동구,11200000132,가정,"서울특별시 성동구 행당로 79 120동 102호(행당동, 대림이편한세상아파트)",02-2293-2708,37.55735443,127.0285183,일반
곤지잼잼 어린이집,A,우수,우수,우수,우수,2023-08-01,4792,성동구,11200000078,민간,"서울특별시 성동구 성수동2가 성수일로10길 33 1층 (성수동2가, 성락교회)",02-468-0140,37.54642410916674,127.05422613389923,야간연장
구립 가람어린이집,A,우수,우수,우수,우수,2023-01-01,4741,성동구,11200000360,국공립,서울특별시 성동구 독서당로62길 43 6동 105호,02-2297-3462,37.55189906037326,127.03352488585598,일반
구립 극동그린어린이집,A,우수,우수,우수,우수,2023-03-01,4732,성동구,11200000345,국공립,서울특별시 성동구 독서당로 175,02-2281-9297,37.54161760767591,127.00981258057917,야간연장
구립 극동미라주어린이집,A,우수,우수,우수,우수,2021-07-01,4721,성동구,11200000377,국공립,"서울특별시 성동구 난계로 73 101동 110호(하왕십리동, 극동미라주 아파트)",02-2295-4002,37.5550741212539,127.02667482741826,일반
구립 금봉어린이집,A,우수,우수,우수,우수,2019-11-01,4719,성동구,11200000014,국공립,서울특별시 성동구 독서당로57가길 24 금봉어린이집,02-2291-5803,37.55361447,127.0277837,야간연장
구립 금사어린이집,A,우수,우수,우수,우수,2022-01-01,4738,성동구,11200000019,국공립,서울특별시 성동구 독서당로46길 26 (금호동4가),02-2293-4544,37.54715933,127.022319,야간연장
구립 금삼어린이집,A,우수,우수,우수,우수,2022-06-01,4726,성동구,11200000341,국공립,서울특별시 성동구 금호동3가 금호산길 14,02-2233-6670,37.549224402356856,127.0197403192438,야간연장
구립 금옥어린이집,A,우수,우수,우수,우수,2020-01-01,4731,성동구,11200000012,국공립,서울특별시 성동구 매봉18길 1 (옥수동),02-2297-6738,37.54955905,127.0127112,야간연장
구립 금일어린이집,A,우수,우수,우수,우수,2023-12-01,4718,성동구,11200000035,국공립,서울특별시 성동구 난계로 18 (금호동1가),02-2291-8629,37.55368497,127.0248605,"장애아통합,야간연장"
구립 금호어린이집,A,우수,우수,우수,우수,2023-02-01,4722,성동구,11200000022,국공립,서울특별시 성동구 금호동2가 매봉18길 125 금호어린이집,02-2234-1382,37.55693619338755,127.01882676273539,야간연장
구립 금호자이미소어린이집,A,우수,우수,우수,우수,2019-01-01,4728,성동구,11200000315,국공립,서울특별시 성동구 금호로 117 (금호동2가) 금호자이1차아파트 관리동 1층 (104동 앞),02-2233-7737,37.5526759311274,127.02328738538549,야간연장
구립 금호자이햇살어린이집,B,우수,보통,우수,우수,2019-11-01,4729,성동구,11200000326,국공립,서울특별시 성동구 금호동3가 금호산8길 14 금호자이2차아파트 내,02-2231-1432,37.54993201039732,127.02016652642556,야간연장
구립 금호키움어린이집,A,우수,우수,우수,우수,2023-01-01,4711,성동구,11200000361,국공립,서울특별시 성동구 난계로 114-31 104-102(하왕십리동),02-2292-2240,37.56123169760994,127.0259503934554,일반
구립 꽃초롱어린이집,A,우수,우수,우수,우수,2023-11-01,4701,성동구,11200000363,국공립,서울특별시 성동구 마장로 164,02-2291-3260,37.56677059772877,127.02781769400914,일반
구립 단비어린이집,A,우수,우수,우수,우수,2022-06-01,4804,성동구,11200000041,국공립,서울특별시 성동구 용답중앙길 49 (용답동),02-2249-3215,37.56476418,127.0517421,일반
구립 대현어린이집,A,우수,우수,우수,우수,2022-07-01,4721,성동구,11200000017,국공립,서울특별시 성동구 행당로 15 (금호동1가),02-2299-5935,37.55486873,127.0216773,야간연장
구립 도선어린이집,A,우수,우수,우수,우수,2022-07-01,4707,성동구,11200000028,국공립,서울특별시 성동구 왕십리로30길 17-1,02-2297-9178,37.56607826,127.0305964,"장애아통합,야간연장"
구립 독서당어린이집,A,우수,우수,우수,우수,2021-07-01,4733,성동구,11200000336,국공립,서울특별시 성동구 매봉길 17 래미안리버젠 2단지,02-2299-2929,37.54650054479592,127.01447540563646,야간연장
구립 동아어린이집,A,우수,우수,우수,우수,2023-05-01,4747,성동구,11200000299,국공립,서울특별시 성동구 고산자로2길 13 구립동아어린이집,02-2294-1230,37.55249791305594,127.03654936275028,야간연장
구립 동호어린이집,A,우수,우수,우수,우수,2022-08-01,4724,성동구,11200000034,국공립,서울특별시 성동구 금호동3가 금호산9길 9 (금호동3가),02-2235-0914,37.54997053261757,127.0191113181978,야간연장
구립 래미안리버젠어린이집,B,우수,우수,우수,보통,2020-01-01,4733,성동구,11200000322,국공립,서울특별시 성동구 매봉길 15 래미안리버젠아파트 관리동,02-2291-2013,37.54519202243856,127.0165436781677,야간연장
구립 래미안하이리버어린이집,A,우수,우수,우수,우수,2019-01-01,4728,성동구,11200000323,국공립,서울특별시 성동구 금호동2가 금호로 107 래미안하이리버아파트 관리동,02-2237-2255,37.55129938974688,127.0246025244422,야간연장
구립 마장어린이집,A,우수,우수,우수,우수,2022-07-01,4757,성동구,11200000018,국공립,서울특별시 성동구 마장로44길 10 (마장동),02-2293-9394,37.56642292,127.0454704,"장애아통합,야간연장"
구립 마장현대어린이집,A,우수,우수,우수,우수,2023-08-01,4753,성동구,11200000354,국공립,서울특별시 성동구 마장로35길 76 마장현대아파트 관리동 1층,02-2281-9281,37.57026226862831,127.04199563032738,야간연장
구립 맑은샘어린이집,A,우수,우수,우수,우수,2023-08-01,4731,성동구,11200000387,국공립,서울특별시 성동구 매봉길 51 (옥수동 528-2),02-2293-0509,37.5465907739,127.0133800346,"장애아통합,야간연장"
구립 매봉도담어린이집,A,우수,우수,우수,우수,2023-05-01,4731,성동구,11200000355,국공립,서울특별시 성동구 매봉길 88,02-2293-3330,37.54921091931142,127.01301385181564,야간연장
구립 무학어린이집,A,우수,우수,우수,우수,2022-06-01,4711,성동구,11200000023,국공립,서울특별시 성동구 난계로 114-31 금호베스트빌아파트 임대관리동 (하왕십리동),02-2293-3067,37.56132356,127.025791,야간연장
구립 벽산어린이집,A,우수,우수,우수,우수,2021-07-01,4718,성동구,11200000070,국공립,"서울특별시 성동구 금호동1가 행당로6길 2 (금호동1가, 금호벽산제2관리소 2층)",02-2296-3062,37.55539336125724,127.02537344855538,야간연장
구립 별하어린이집,A,우수,우수,우수,우수,2023-11-01,4753,성동구,11200000362,국공립,서울특별시 성동구 마장로39길 31,02-2291-4191,37.56821129420416,127.04285474303244,일반
구립 빛초롱어린이집,A,우수,우수,우수,우수,2023-12-01,4773,성동구,11200000060,국공립,서울특별시 성동구 왕십리로 36 강변건영아파트 관리동 2층 (성수동1가),02-499-8599,37.54034501,127.0450335,야간연장
구립 사과꽃어린이집,A,우수,우수,우수,우수,2023-11-01,4728,성동구,11200000313,국공립,서울특별시 성동구 금호로 111 (금호동2가) 래미안하이리버 임대동 1층,02-2231-0469,37.55187762973275,127.02321799468584,야간연장
구립 사근다솜어린이집,A,우수,우수,우수,우수,2022-07-01,4761,성동구,11200000015,국공립,서울특별시 성동구 사근동길 37 (사근동),02-2281-3308,37.56105772,127.0455332,"장애아통합,야간연장"
구립 새솔어린이집,A,우수,우수,우수,우수,2019-01-01,4728,성동구,11200000366,국공립,서울특별시 성동구 금호동2가 금호로 107 105동 102호,070-8111-3067,37.55227254354976,127.02423617821113,일반
구립 서마어린이집,A,우수,우수,우수,우수,2023-02-01,4704,성동구,11200000032,국공립,서울특별시 성동구 청계천로 546 (마장동),02-2293-5369,37.57169914,127.0368947,야간연장
구립 서울숲더샵어린이집,A,우수,우수,우수,우수,2023-02-01,4765,성동구,11200000357,국공립,서울특별시 성동구 왕십리로 241 서울숲더샵아 1층,02-2296-2014,37.55707596986649,127.04002802387969,야간연장
구립 서울숲리버뷰자이어린이집,B,보통,우수,우수,우수,2023-08-01,4745,성동구,11200000389,국공립,서울특별시 성동구 고산자로2길 65 행당동 100번지일대(행당6구역),02-2293-7770,37.556326708,127.0389275652,"야간연장,시간제보육"
구립 서울숲어린이집,A,우수,우수,우수,우수,2019-09-01,4737,성동구,11200000331,국공립,서울특별시 성동구 금호동4가 금호로 17 서울숲 푸르지오2차 관리동,02-2295-2333,37.54623594007473,127.02380874426464,야간연장
구립 성덕어린이집,A,우수,우수,우수,우수,2022-06-01,4775,성동구,11200000030,국공립,서울특별시 성동구 성수이로3길 14-7,02-464-9746,37.53715143,127.0530548,야간연장
구립 성모어린이집,B,우수,우수,보통,우수,2022-07-01,4704,성동구,11200000142,국공립,서울특별시 성동구 청계천로 506 (성동종합사회복지관3층),02-2290-3182,37.57046833,127.0338088,"장애아통합,야간연장"
구립 성삼보듬이나눔이어린이집,A,우수,우수,우수,우수,2021-07-01,4795,성동구,11200000342,국공립,서울특별시 성동구 성수동2가 광나루로 242-17,02-466-3028,37.54875479737704,127.05656351125164,야간연장
구립 성수롯데캐슬어린이집,A,우수,우수,우수,우수,2023-11-01,4794,성동구,11200000391,국공립,"서울특별시 성동구 성수동2가 성수일로8길 47 관리동 (성수동2가, 성수동 롯데캐슬파크)",02-499-1177,37.54624562624995,127.05538023082865,일반
구립 성수아이파크어린이집,A,우수,우수,우수,우수,2023-08-01,4795,성동구,11200000395,국공립,"서울특별시 성동구 성수이로 137 관리동 1층 (성수동2가, 성수동아이파크)",02-469-5575,37.54708974374037,127.05658035881122,일반
구립 성수어린이집,A,우수,우수,우수,우수,2022-08-01,4792,성동구,11200000021,국공립,서울특별시 성동구 광나루로2길 14 (성수동2가),02-498-6715,37.54948034,127.0532689,야간연장
구립 성원어린이집,A,우수,우수,우수,우수,2022-08-01,4780,성동구,11200000033,국공립,서울특별시 성동구 뚝섬로3길 18 (성수동1가),02-461-1690,37.54188615,127.0496567,"장애아통합,야간연장"
구립 성이어린이집,A,우수,우수,우수,우수,2023-02-01,4776,성동구,11200000350,국공립,서울특별시 성동구 성수동2가 성수이로6길 10-2,02-464-5757,37.53645865172598,127.05509239366904,야간연장
구립 성일어린이집,A,우수,우수,우수,우수,2022-06-01,4788,성동구,11200000020,국공립,서울특별시 성동구 아차산로1길 30 (성수동1가),02-464-5219,37.55048442,127.0464784,야간연장
구립 센트라스나래어린이집,A,우수,우수,우수,우수,2021-07-01,4701,성동구,11200000376,국공립,"서울특별시 성동구 왕십리로 410 하왕십리동, 123동",02-2291-2017,37.56575098539533,127.02644659677028,일반
구립 센트라스라온어린이집,A,우수,우수,우수,우수,2021-07-01,4701,성동구,11200000373,국공립,"서울특별시 성동구 왕십리로 410 129동(하왕십리동, 센트라스)",02-2296-3002,37.564993681593776,127.02845541242355,일반
구립 센트라스아띠어린이집,A,우수,우수,우수,우수,2021-07-01,4701,성동구,11200000375,국공립,"서울특별시 성동구 왕십리로 410 하왕십리동, 센트라스 101동",02-2292-2295,37.567048919922776,127.02410966343004,일반
구립 센트라스으뜸어린이집,A,우수,우수,우수,우수,2021-07-01,4701,성동구,11200000374,국공립,"서울특별시 성동구 왕십리로 410 하왕십리동, 센트라스 128동",02-2282-4650,37.56538646789382,127.02466375075215,일반
구립 송정햇살어린이집,A,우수,우수,우수,우수,2023-11-01,4801,성동구,11200000365,국공립,서울특별시 성동구 송정12길 1,02-467-5002,37.55014853790305,127.06548199247318,"일반,시간제보육"
구립 송화어린이집,C,우수,우수,개선필요,우수,2022-06-01,4800,성동구,11200000051,국공립,서울특별시 성동구 송정18가길 29 (송정동),02-499-5292,37.55493618,127.0692508,"장애아통합,야간연장"
구립 스위첸숲속어린이집,A,우수,우수,우수,우수,2023-01-01,4711,성동구,11200000390,국공립,서울특별시 성동구 무학봉길 35,02-2282-2847,37.5606043973,127.0268737341,일반
구립 신금호자이어린이집,A,우수,우수,우수,우수,2020-01-01,4722,성동구,11200000369,국공립,서울특별시 성동구 금호동2가 금호로 173 신금호파크자이 관리동,02-2234-1700,37.55613330844247,127.0194207263147,일반
구립 양지어린이집,A,우수,우수,우수,우수,2023-03-01,4701,성동구,11200000352,국공립,서울특별시 성동구 난계로 160,02-2299-9312,37.56600378593255,127.02400519240872,야간연장
구립 연꽃어린이집,A,우수,우수,우수,우수,2023-02-01,4736,성동구,11200000013,국공립,서울특별시 성동구 한림말길 16-5,02-2282-1105,37.54043785,127.012716,"장애아통합,야간연장"
구립 옥수파크어린이집,A,우수,우수,우수,우수,2021-07-01,4731,성동구,11200000370,국공립,"서울특별시 성동구 매봉길 50 110동 (옥수동, 옥수파크힐스 1단지)",02-2282-3241,37.548535051683615,127.01404917490554,일반
구립 옥수힐스어린이집,A,우수,우수,우수,우수,2021-07-01,4731,성동구,11200000371,국공립,"서울특별시 성동구 매봉길 50 (옥수동, 옥수파크힐스 2단지)",02-2281-7979,37.5472936889,127.0121218096,일반
구립 왕도어린이집,A,우수,우수,우수,우수,2023-02-01,4707,성동구,11200000351,국공립,서울특별시 성동구 무학로6길 9,02-2299-3889,37.565483149384654,127.03112684805096,야간연장
구립 왕십리어린이집,B,우수,보통,우수,우수,2022-04-01,4750,성동구,11200000317,국공립,서울특별시 성동구 고산자로 262 구립 왕십리어린이집,02-2293-2010,37.56236558379405,127.03645438119608,야간연장
구립 왕십리자이어린이집,A,우수,우수,우수,우수,2022-09-01,4711,성동구,11200000381,국공립,서울특별시 성동구 난계로 100,02-2296-0901,37.56066971614554,127.02483196774352,일반
구립 왕십리하나어린이집,B,우수,우수,우수,보통,2020-11-01,4714,성동구,11200000394,국공립,서울특별시 성동구 무학봉16길 9-3,02-2296-3990,37.56085493726033,127.03203886341048,일반
구립 용답어린이집,A,우수,우수,우수,우수,2022-08-01,4806,성동구,11200000025,국공립,서울특별시 성동구 자동차시장길 22 용답어린이집,02-2245-8538,37.5616001,127.0563991,야간연장
구립 우리어린이집,A,우수,우수,우수,우수,2018-08-01,4714,성동구,11200000358,국공립,서울특별시 성동구 왕십리로21길 26-1 3층,02-2295-7940,37.56041574165744,127.03188984250288,야간연장
구립 은행어린이집,A,우수,우수,우수,우수,2022-07-01,4745,성동구,11200000016,국공립,서울특별시 성동구 고산자로10길 18 (행당동),02-2281-4477,37.55849856,127.0360811,야간연장
구립 응봉어린이집,A,우수,우수,우수,우수,2022-06-01,4742,성동구,11200000026,국공립,서울특별시 성동구 독서당로60길 12-7,02-2295-1021,37.54894624,127.0305321,야간연장
구립 이편한세상금호어린이집,A,우수,우수,우수,우수,2023-02-01,4727,성동구,11200000384,국공립,"서울특별시 성동구 금호로 140 (금호동1가, e편한세상 금호파크힐스아파트 104동 앞)",02-2282-2018,37.55532274466242,127.02260634065662,일반
구립 진터마루어린이집,A,우수,우수,우수,우수,2023-02-01,4774,성동구,11200000024,국공립,서울특별시 성동구 둘레3길 18 (성수동1가),02-2205-5004,37.53871802,127.0474124,"장애아통합,야간연장"
구립 텐즈아이어린이집,A,우수,우수,우수,우수,2023-03-01,4702,성동구,11200000386,국공립,"서울특별시 성동구 무학로 33 114동 1층 (하왕십리동, 텐즈힐1단지)",02-2282-2114,37.5691639797,127.0263470607,일반
구립 텐즈힐두리어린이집,A,우수,우수,우수,우수,2023-03-01,4700,성동구,11200000356,국공립,서울특별시 성동구 마장로 137,02-2296-8200,37.57022718113768,127.02411351777054,야간연장
구립 트리마제어린이집,A,우수,우수,우수,우수,2023-07-01,4773,성동구,11200000388,국공립,"서울특별시 성동구 성수동1가 왕십리로 16 관리동 (성수동1가, 트리마제)",02-465-7717,37.5392561544,127.0446711778,일반
구립 풍림아름다운어린이집,A,우수,우수,우수,우수,2022-06-01,4712,성동구,11200000059,국공립,서울특별시 성동구 난계로 84 행당역풍림아이원아파트 관리동 (하왕십리동),02-2293-1005,37.55891341,127.025261,야간연장
구립 해온어린이집,A,우수,우수,우수,우수,2019-12-01,4768,성동구,11200000392,국공립,서울특별시 성동구 성수동1가 왕십리로5길 3,02-462-6738,37.54632010842336,127.04435854597293,일반
구립 행당어린이집,A,우수,우수,우수,우수,2022-09-01,4717,성동구,11200000027,국공립,서울특별시 성동구 행당로 82 한진2차아파트 관리동2층 (행당동),02-2295-3918,37.555641818356456,127.02636946091708,야간연장
구립 행당푸르지오어린이집,A,우수,우수,우수,우수,2023-05-01,4716,성동구,11200000301,국공립,서울특별시 성동구 고산자로 177,02-2295-1220,37.555767556041744,127.0335586010168,야간연장
구립 행당한신어린이집,A,우수,우수,우수,우수,2020-11-01,4746,성동구,11200000393,국공립,"서울특별시 성동구 고산자로 164 관리동 2층(행당동, 행당한신)",02-2291-0079,37.55620480381817,127.03549435337251,일반
구립 행응어린이집,A,우수,우수,우수,우수,2022-06-01,4719,성동구,11200000164,국공립,서울특별시 성동구 독서당로63길 34 (행당동),02-2293-4870,37.55314657,127.031151,야간연장
구립 홍익어린이집,A,우수,우수,우수,우수,2023-12-01,4700,성동구,11200000009,국공립,서울특별시 성동구 마장로 141 (홍익동),02-2293-2596,37.567873934090784,127.02552709511713,"장애아통합,야간연장"
구립 힐스테이트서울숲리버어린이집,A,우수,우수,우수,우수,2023-02-01,4743,성동구,11200000385,국공립,서울특별시 성동구 금호동4가 금호로 40 힐스테이트서울숲리버아파트 관리동,02-2295-7100,37.5467040992,127.0255334536,일반
금빛 어린이집,A,우수,우수,우수,우수,2020-01-01,4755,성동구,11200000133,가정,"서울특별시 성동구 마장로37길 7 101동 102호(마장동, 대성유니드아파트)",02-2291-0555,37.56682902,127.0387742,일반
꼬꼬마 어린이집,A,우수,우수,우수,우수,2022-09-01,4724,성동구,11200000138,가정,"서울특별시 성동구 동호로 100 106동 101호(금호동3가, 두산아파트)",02-2254-4248,37.54989044,127.0162502,일반
꼬마대통령 어린이집,A,우수,우수,우수,우수,2019-09-01,4728,성동구,11200000061,민간,서울특별시 성동구 무수막길 72 (금호동2가),02-2253-6007,37.55227239,127.0207537,일반
꼬마숲어린이집,A,우수,우수,우수,우수,2022-12-01,4746,성동구,11200000287,가정,"서울특별시 성동구 고산자로 164 105동 103호(행당동, 행당한신)",070-4312-3954,37.55519044,127.0361429,일반
꼬마에디슨 어린이집,B,우수,우수,보통,보통,2020-01-01,4718,성동구,11200000068,민간,서울특별시 성동구 금호동1가 금호로 100 벽산아파트 관리동,02-2293-8090,37.55192909,127.0271854,일반
꽃가람어린이집,A,우수,우수,우수,우수,2021-08-01,4700,성동구,11200000347,가정,"서울특별시 성동구 마장로 137 208동 101호(상왕십리동, 텐즈힐 아파트)",02-2299-6400,37.5678235801705,127.0250516712042,일반
꿈나무 어린이집,A,우수,우수,우수,우수,2023-09-01,4734,성동구,11200000150,가정,"서울특별시 성동구 독서당로 218 104동 103호(옥수동, 삼성아파트)",02-2294-3297,37.54224776,127.0141915,일반
꿈터 어린이집,B,우수,우수,보통,우수,2023-02-01,4805,성동구,11200000007,민간,서울특별시 성동구 용답중앙길 89-2,02-2242-2989,37.56233529965697,127.05515218881116,야간연장
늘푸른 어린이집,A,우수,우수,우수,우수,2021-02-01,4726,성동구,11200000308,가정,"서울특별시 성동구 금호산길 8 108-105(금호동3가,금호1차푸르지오)",02-2253-0079,37.5488400845051,127.01968191911,일반
도담아이 어린이집,A,우수,우수,우수,우수,2021-08-01,4713,성동구,11200000344,가정,"서울특별시 성동구 행당로 79 119동 103호(행당동, 대림아파트)",02-6213-5410,37.5582039955,127.0275066662,일반
두리두리어린이집,A,우수,우수,우수,우수,2021-07-01,4710,성동구,11200000129,가정,"서울특별시 성동구 왕십리로31나길 22 3동 109호(하왕십리동, 한신무학아파트)",02-2295-5689,37.56257201,127.0281483,일반
둥지어린이집,A,우수,우수,우수,우수,2023-02-01,4713,성동구,11200000292,가정,"서울특별시 성동구 행당로 79 131동 102호(행당동, 행당대림아파트)",02-6464-9595,37.55816852103366,127.02891118552655,일반
디즈니 어린이집,A,우수,우수,우수,우수,2022-01-01,4720,성동구,11200000295,가정,"서울특별시 성동구 독서당로 377 107동 102호(응봉동, 금호현대)",02-6212-5353,37.55099268,127.0309922,일반
딩동댕어린이집,A,우수,우수,우수,우수,2023-03-01,4775,성동구,11200000094,민간,서울특별시 성동구 둘레13길 15 (성수동2가),02-497-1919,37.53610286,127.052973,야간연장
또또 어린이집,A,우수,우수,우수,우수,2021-07-01,4717,성동구,11200000154,가정,"서울특별시 성동구 행당로 82 111동 101호(행당동, 해모로한진타운)",02-2281-8992,37.55593461,127.0290936,일반
라온어린이집,A,우수,우수,우수,우수,2020-08-01,4753,성동구,11200000128,가정,"서울특별시 성동구 살곶이길 50 107동 102호(마장동, 현대아파트)",02-2297-9229,37.56952326,127.0424491,일반
모두의 숲 어린이집,A,우수,우수,우수,우수,2021-06-01,4790,성동구,11200000396,직장,서울특별시 성동구 상원6나길 22-7,02-463-0312,37.54753875557011,127.04988720206627,일반
별초롱 어린이집,B,우수,우수,보통,우수,2020-08-01,4774,성동구,11200000079,민간,서울특별시 성동구 성수동1가 성덕정길 25-96,02-468-0190,37.53974058,127.0472851,야간연장
본향어린이집,A,우수,우수,우수,우수,2023-02-01,4721,성동구,11200000031,법인?단체등,서울특별시 성동구 난계로 61  -46 본향어린이집,02-2291-2350,37.55757731,127.0229887,일반
사랑 어린이집,A,우수,우수,우수,우수,2019-12-01,4703,성동구,11200000135,가정,"서울특별시 성동구 무학로 50 107동 107호(하왕십리동, 청계벽산아파트)",02-2294-2989,37.56869402,127.0320285,일반
샛별어린이집,A,우수,우수,우수,우수,2021-08-01,4788,성동구,11200000348,가정,"서울특별시 성동구 성수동1가 상원길 63 101동 103호(성수동1가, 쌍용아파트)",02-498-5579,37.55013567374597,127.04710846102176,일반
서울교통공사 어린이집,A,우수,우수,우수,우수,2023-12-01,4806,성동구,11200000383,직장,서울특별시 성동구 자동차시장길 22 인재개발원 1층,02-6110-8093,37.56179409647753,127.05643302079544,일반
서울숲미래연 어린이집,A,우수,우수,우수,우수,2023-07-01,4740,성동구,11200000123,민간,서울특별시 성동구 금호로 15 서울숲푸르지오아파트 관리동 1층 (금호동4가),02-2298-4280,37.54472037,127.0223384,일반
서울시설공단 누비어린이집,A,우수,우수,우수,우수,2023-11-01,4707,성동구,11200000380,직장,서울특별시 성동구 왕십리로26길 29,02-2298-2800,37.5656916752,127.0329877595,일반
성동 어린이집,B,우수,우수,우수,보통,2023-09-01,4728,성동구,11200000063,민간,서울특별시 성동구 금호동2가 무수막길 80 1층 (금호동2가),02-2231-9797,37.55289670136568,127.02073265262298,일반
성동구청 무지개 어린이집,A,우수,우수,우수,우수,2023-01-01,4744,성동구,11200000029,직장,서울특별시 성동구 왕십리로 281 (행당동)1층,02-2291-6095,37.55927255,127.035418,야간연장
성호 어린이집,B,보통,우수,보통,우수,2020-03-01,4726,성동구,11200000047,민간,서울특별시 성동구 금호산12길 10 (금호동3가),02-2232-4215,37.55165106,127.0202583,일반
세림 어린이집,B,보통,우수,우수,우수,2021-01-01,4757,성동구,11200000109,가정,"서울특별시 성동구 마장로42길 14 6동 104호(마장동, 세림아파트)",02-2298-1553,37.56499505,127.0451705,일반
센트라스어린이집,A,우수,우수,우수,우수,2023-09-01,4701,성동구,11200000346,가정,"서울특별시 성동구 왕십리로 410 122동 102호(하왕십리동, 센트라스)",02-2299-1025,37.56577204358984,127.02792513518284,일반
아기나무어린이집,A,우수,우수,우수,우수,2020-02-01,4713,성동구,11200000328,가정,"서울특별시 성동구 행당로 87 107동 103호 (행당제2동, 대림아파트)",02-2296-2301,37.557430165352095,127.02885121454092,일반
아이꿈어린이집,A,우수,우수,우수,우수,2023-08-01,4713,성동구,11200000112,가정,"서울특별시 성동구 행당로 79 122동 101호(행당동, 대림이편한세상아파트)",02-2291-1294,37.55735443,127.0285183,일반
아이나무어린이집,A,우수,우수,우수,우수,2019-12-01,4757,성동구,11200000140,가정,"서울특별시 성동구 마장로42길 16 1동 106호(마장동, 세림아파트)",02-2281-4543,37.56499505,127.0451705,일반
아이뜰어린이집,A,우수,우수,우수,우수,2021-07-01,4747,성동구,11200000304,가정,서울특별시 성동구 고산자로 160 대림강변아파트 112-101,02-6219-0536,37.55378856524229,127.03505612372476,일반
아이사랑영재 어린이집,A,우수,우수,우수,우수,2021-07-01,4746,성동구,11200000116,가정,"서울특별시 성동구 고산자로 164 102동 104호(행당동, 행당한신)",02-2299-4470,37.55648282746455,127.03527436002508,일반
아이원어린이집,A,우수,우수,우수,우수,2020-01-01,4712,성동구,11200000225,가정,"서울특별시 성동구 난계로 84 107동 101호(하왕십리동, 풍림아이원아파트)",02-2282-2183,37.55891341,127.025261,일반
아이으뜸어린이집,A,우수,우수,우수,우수,2022-09-01,4739,성동구,11200000319,가정,"서울특별시 성동구 뚝섬로 51 102동 101호(옥수동, 옥수풍림아이원)",02-2297-4650,37.54203222124213,127.0194765936418,일반
엄마맘어린이집,A,우수,우수,우수,우수,2023-01-01,4728,성동구,11200000309,가정,"서울특별시 성동구 금호로 107 103동 102호 (금호동2가, 래미안하이리버)",02-2233-2235,37.55198184825223,127.0247752056073,일반
엔젤어린이집,B,우수,우수,보통,우수,2019-12-01,4717,성동구,11200000223,가정,"서울특별시 성동구 행당로 82 113동 103호(행당동, 해모로한진타운)",02-2282-5004,37.55593461,127.0290936,일반
엘림몬테소리어린이집,A,우수,우수,우수,우수,2020-03-01,4718,성동구,11200000226,가정,"서울특별시 성동구 금호로 100 101동 103호(금호동1가, 벽산아파트)",02-2291-2769,37.55052389208908,127.02749931686094,일반
예인꼬마숲어린이집,A,우수,우수,우수,우수,2019-09-01,4740,성동구,11200000318,가정,서울특별시 성동구 금호동4가 금호로 15 서울숲푸르지오 1차 105동 102호,02-2296-8665,37.54696887188501,127.0240584793865,일반
예지어린이집,B,우수,우수,보통,우수,2023-03-01,4705,성동구,11200000052,민간,서울특별시 성동구 마장로27가길 15,02-2292-8800,37.56691832,127.0352515,일반
우리은행어린이집,A,우수,우수,우수,우수,2023-02-01,4799,성동구,11200000339,직장,서울특별시 성동구 성수동2가 광나루로 324 우리은행 화양동지점,02-463-5015,37.54793914736378,127.06573806903644,일반
으뜸꼬마숲어린이집,A,우수,우수,우수,우수,2023-02-01,4718,성동구,11200000316,가정,"서울특별시 성동구 금호동1가 독서당로 343 203동 102호 (금호동1가, 삼성래미안아파트)",02-2293-3555,37.54904626523365,127.0274535085331,일반
즐거운어린이집,B,우수,우수,우수,보통,2022-08-01,4776,성동구,11200000097,가정,서울특별시 성동구 둘레15길 15-1,02-469-9566,37.53622527,127.0554313,일반
짐키드어린이집,A,우수,우수,우수,우수,2022-12-01,4717,성동구,11200000222,가정,"서울특별시 성동구 행당로 82 105동 104호(행당동, 해모로한진타운)",02-2281-5056,37.55593461,127.0290936,일반
토토어린이집,B,우수,우수,우수,보통,2021-05-01,4737,성동구,11200000314,가정,"서울특별시 성동구 금호동4가 금호로 17 203동 104호(금호동4가, 서울숲2차푸르지오)",02-6326-3977,37.54688100208012,127.02407148156236,일반
튼튼삐아제어린이집,B,우수,우수,보통,우수,2022-06-01,4713,성동구,11200000077,민간,서울특별시 성동구 행당로 75 대림아파트제2관리소2층,02-2296-3071,37.55735443,127.0285183,일반
푸르지오 어린이집,A,우수,우수,우수,우수,2019-01-01,4738,성동구,11200000197,가정,"서울특별시 성동구 금호동4가 독서당로 272 102동 101호(금호동4가, 금호동대우아파트)",02-2235-2026,37.5459458,127.0195147,일반
푸른숲어린이집,B,보통,우수,우수,우수,2023-08-01,4703,성동구,11200000115,가정,"서울특별시 성동구 무학로 50 103동 101호(하왕십리동, 청계벽산아파트)",02-2296-4697,37.56910833888389,127.03267232302916,일반
피노키오어린이집,A,우수,우수,우수,우수,2019-01-01,4805,성동구,11200000106,민간,서울특별시 성동구 용답중앙15길 10 (용답동),02-2215-0526,37.56443411,127.0538392,"야간연장,휴일보육,24시간"
하늘꿈 어린이집,A,우수,우수,우수,우수,2022-07-01,4746,성동구,11200000120,가정,"서울특별시 성동구 고산자로 164 116동 104호(행당동, 한신아파트)",02-2298-9921,37.554427250291134,127.03659410615288,일반
하니삐아제 어린이집,A,우수,우수,우수,우수,2023-03-01,4738,성동구,11200000072,민간,서울특별시 성동구 독서당로 272 대우아파트 관리사무소내 하니삐아제 어린이집,02-2297-9501,37.5459458,127.0195147,야간연장
하랑어린이집,B,보통,우수,보통,우수,2020-03-01,4788,성동구,11200000284,가정,"서울특별시 성동구 상원길 59 104동 104호(성수동1가, 쌍용아파트)",02-6071-5309,37.54954954,127.0471976,일반
한빛 어린이집,A,우수,우수,우수,우수,2022-01-01,4711,성동구,11200000127,가정,"서울특별시 성동구 행당로 79 110동 102호(행당동, 대림아파트)",02-2299-1567,37.56091399,127.0281359,일반
한양대학교 한양어린이집,A,우수,우수,우수,우수,2023-08-01,4763,성동구,11200000045,직장,서울특별시 성동구 왕십리로 222-1 한양대학교 내,02-2220-1528,37.55889657,127.0361608,일반
한울어린이집,A,우수,우수,우수,우수,2020-09-01,4734,성동구,11200000333,가정,"서울특별시 성동구 독서당로 218 110-102(옥수동, 옥수삼성아파트)",02-2291-0903,37.54263101168614,127.01555258882178,일반
해담솔 어린이집,A,우수,우수,우수,우수,2023-08-01,4718,성동구,11200000117,가정,"서울특별시 성동구 금호로 100 106동 104호(금호동1가, 벽산아파트)",02-2293-8431,37.55192909,127.0271854,일반
행복가득어린이집,A,우수,우수,우수,우수,2022-02-01,4800,성동구,11200000084,민간,서울특별시 성동구 송정18가길 34 (송정동),02-498-7383,37.55525641,127.0695253,야간연장
헤세드어린이집,A,우수,우수,우수,우수,2023-02-01,4720,성동구,11200000038,법인?단체등,서울특별시 성동구 독서당로 375 (응봉동),02-2292-1191,37.55018028,127.0294975,일반
현대글로비스 서울숲 어린이집,A,우수,우수,우수,우수,2023-02-01,4768,성동구,11200000397,직장,서울특별시 성동구 서울숲4길 5,02-462-2111,37.54777508554885,127.04163928258352,일반
힐스테이트 어린이집,A,우수,우수,우수,우수,2021-07-01,4780,성동구,11200000283,민간,서울특별시 성동구 성수일로4길 26 서울숲힐스테이트 아파트 단지내 관리노인정 1층 (성수동2가),02-466-5331,37.54123386,127.0521307,일반
EQ어린이집,A,우수,우수,우수,우수,2020-11-01,5015,광진구,11215000004,가정,서울특별시 광진구 동일로26길 41 (화양동),02-466-1071,37.54489788042541,127.0682975161844,야간연장
KB구의 어린이집,A,우수,우수,우수,우수,2021-03-01,4977,광진구,11215000355,직장,서울특별시 광진구 광나루로 525 3층,02-6235-7977,37.545115339002464,127.08800276377303,일반
강변에코비어린이집,A,우수,우수,우수,우수,2022-03-01,5116,광진구,11215000324,가정,서울특별시 광진구 구의강변로 42 101동 108호,02-3436-0260,37.535591611454045,127.09291783086698,일반
고은아이어린이집,A,우수,우수,우수,우수,2019-01-01,5087,광진구,11215000302,가정,서울특별시 광진구 능동로3길 53 1동 102호(자양동),02-464-1355,37.53422499599731,127.06451816250694,일반
광진구청직장어린이집,A,우수,우수,우수,우수,2022-08-01,5026,광진구,11215000034,직장,서울특별시 광진구 자양로 117 광진구청 1동 777호(자양동),02-450-1650,37.53872654013966,127.08201449858753,"야간연장,휴일보육"
광진어린이집,B,보통,우수,우수,우수,2023-08-01,5054,광진구,11215000032,민간,서울특별시 광진구 아차산로40길 9 (자양동),02-2201-0126,37.537193,127.07864,야간연장
구립 건대티움아이어린이집,A,우수,우수,우수,우수,2023-08-01,5090,광진구,11215000342,국공립,"서울특별시 광진구 능동로4길 41 701동 101호(자양동, 자양7차현대홈타운)",02-499-1279,37.56647,126.977963,일반
구립 광진그랜드파크어린이집,A,우수,우수,우수,우수,2023-04-01,5022,광진구,11215000362,국공립,서울특별시 광진구 광나루로 458 어린이집,02-469-1956,37.54370562061723,127.0812344033046,야간연장
구립 구의1동 아이터어린이집,A,우수,우수,우수,우수,2022-01-01,5023,광진구,11215000337,국공립,서울특별시 광진구 자양로23길 79,02-2201-8684,37.56647,126.977963,야간연장
구립 구의2동어린이집,A,우수,우수,우수,우수,2022-02-01,4959,광진구,11215000112,국공립,서울특별시 광진구 자양로44길 91 (구의동),02-446-6435,37.55021263436195,127.09624936279256,"장애아통합,야간연장"
구립 구의3동어린이집,A,우수,우수,우수,우수,2023-02-01,5117,광진구,11215000056,국공립,서울특별시 광진구 광나루로54길 36 (구의동),02-457-9230,37.53934757684942,127.09511771345824,야간연장
구립 군자동 꿈모음어린이집,A,우수,우수,우수,우수,2023-11-01,5004,광진구,11215000344,국공립,서울특별시 광진구 군자로12길 6-4 (군자동 363-28),02-499-0011,37.5508568417898,127.07149005029927,일반
구립 군자어린이집,B,보통,우수,우수,우수,2022-01-01,4999,광진구,11215000018,국공립,서울특별시 광진구 동일로56가길 31 (군자동),02-461-2440,37.55457555853534,127.07269718914542,야간연장
구립 굿모닝어린이집,A,우수,우수,우수,우수,2023-02-01,4971,광진구,11215000338,국공립,"서울특별시 광진구 아차산로 552 2동105호(광장동, 광장극동아파트)",02-458-6169,37.54258285625199,127.10278051118978,일반
구립 느티나무어린이집,A,우수,우수,우수,우수,2023-03-01,5022,광진구,11215000096,국공립,서울특별시 광진구 광나루로26길 39 (화양동),02-444-2544,37.54541090630658,127.07809286536164,"장애아통합,야간연장"
구립 능동 꿈맞이어린이집,A,우수,우수,우수,우수,2021-07-01,4987,광진구,11215000334,국공립,서울특별시 광진구 천호대로120길 32,02-457-7532,37.55279334326042,127.08596908498556,"일반,시간제보육"
구립 능동어린이집,A,우수,우수,우수,우수,2023-02-01,4988,광진구,11215000109,국공립,서울특별시 광진구 천호대로114길 47 (능동),02-458-0670,37.55357491350493,127.08196709028492,야간연장
구립 능동주민센터어린이집,A,우수,우수,우수,우수,2023-05-01,4989,광진구,11215000341,국공립,서울특별시 광진구 천호대로112길 55 능동주민센터 1층(능동 232-4),02-452-1006,37.55367109806976,127.08060014630004,야간연장
구립 대원어린이집,A,우수,우수,우수,우수,2022-07-01,4950,광진구,11215000057,국공립,서울특별시 광진구 자양로43길 115 (중곡동),02-3437-7173,37.55559176186261,127.08896332698151,야간연장
구립 동서울어린이집,A,우수,우수,우수,우수,2022-08-01,5033,광진구,11215000036,국공립,서울특별시 광진구 광나루로44길 23 (구의동),02-456-7295,37.54314900194278,127.09146080786256,"장애아통합,야간연장"
구립 명성어린이집,B,보통,우수,우수,우수,2020-01-01,5040,광진구,11215000079,국공립,서울특별시 광진구 아차산로55길 59 (구의동),02-2201-9696,37.540082217219975,127.08632920301,야간연장
구립 물고기어린이집,B,우수,우수,우수,보통,2020-01-01,5090,광진구,11215000350,국공립,서울특별시 광진구 뚝섬로34길 25-19 1006동 102호,070-8278-4030,37.5334410708222,127.07057678793772,일반
구립 미래어린이집,A,우수,우수,우수,우수,2023-11-01,4984,광진구,11215000348,국공립,"서울특별시 광진구 아차산로 503-23 104동 113호(광장동, 청구아파트)",02-447-4191,37.5431614673,127.0956067292,일반
구립 바니스쿨어린이집,A,우수,우수,우수,우수,2019-11-01,5118,광진구,11215000330,국공립,서울특별시 광진구 광나루로56길 32 구의현대2단지아파트 215동 104호(구의3동),02-446-1347,37.537338245740834,127.09568189059078,일반
구립 베베아이어린이집,B,보통,우수,우수,우수,2019-12-01,4983,광진구,11215000349,국공립,"서울특별시 광진구 아차산로 549 1008동 101호(광장동,현대파크빌)",02-455-1279,37.54390211580885,127.10098597306256,일반
구립 봄빛어린이집,B,우수,우수,보통,우수,2020-01-01,5086,광진구,11215000351,국공립,"서울특별시 광진구 능동로 19 101동 103호(자양동,한강현대아파트)",02-467-4720,37.53328113978437,127.06670725489302,일반
구립 사랑모아어린이집,A,우수,우수,우수,우수,2019-12-01,5118,광진구,11215000354,국공립,서울특별시 광진구 광나루로56길 32 구의현대아파트 202동 103호,02-457-0348,37.53956704978216,127.09711607733156,일반
구립 사랑의어린이집,A,우수,우수,우수,우수,2022-08-01,4974,광진구,11215000111,국공립,서울특별시 광진구 아차산로66길 8 (광장동),02-2201-1049,37.54103267440077,127.09706601040868,야간연장
구립 상명어린이집,A,우수,우수,우수,우수,2023-08-01,4902,광진구,11215000120,국공립,서울특별시 광진구 동일로80길 30 (중곡동),02-464-5984,37.56993,127.08142,야간연장
구립 샘물어린이집,A,우수,우수,우수,우수,2023-07-01,5105,광진구,11215000358,국공립,서울특별시 광진구 뚝섬로58길 56 101호,02-3437-7737,37.52978908152651,127.08526669695728,일반
구립 샘터어린이집,A,우수,우수,우수,우수,2023-08-01,4984,광진구,11215000339,국공립,"서울특별시 광진구 아차산로 503-23 102동 102호(광장동,청구아파트)",02-456-4566,37.5431614673,127.0956067292,일반
구립 성심어린이집,A,우수,우수,우수,우수,2022-07-01,4925,광진구,11215000094,국공립,서울특별시 광진구 용마산로3길 60 (중곡동),02-3437-2381,37.556595,127.08499,"장애아통합,야간연장"
구립 수호천사어린이집,A,우수,우수,우수,우수,2019-11-01,4934,광진구,11215000037,국공립,서울특별시 광진구 긴고랑로17길 8 (중곡동),02-447-2373,37.562725,127.084236,야간연장
구립 아띠어린이집,A,우수,우수,우수,우수,2023-01-01,5118,광진구,11215000347,국공립,"서울특별시 광진구 광나루로56길 32 (구의동, 구의현대2단지아파트 213동 102호)",02-454-7911,37.53781082437571,127.09623125571322,일반
구립 아이와나무어린이집,A,우수,우수,우수,우수,2021-08-01,4931,광진구,11215000357,국공립,서울특별시 광진구 천호대로123길 4-4,02-452-5579,37.5552386575872,127.08718850385628,일반
구립 예담어린이집,A,우수,우수,우수,우수,2023-02-01,4983,광진구,11215000340,국공립,서울특별시 광진구 아차산로 537-17 광장힐스테이트 관리동,02-444-2008,37.56647,126.977963,일반
구립 우리아이어린이집,A,우수,우수,우수,우수,2021-07-01,5036,광진구,11215000356,국공립,서울특별시 광진구 구의로4길 21 구의동,010-4697-9933,37.54012728673775,127.09083838447305,일반
구립 원스쿨어린이집,A,우수,우수,우수,우수,2021-07-01,4984,광진구,11215000336,국공립,서울특별시 광진구 아차산로69길 19 현대아파트 902동 104호,02-6451-8801,37.5430009551,127.0979691902,일반
구립 은성어린이집,B,우수,우수,보통,우수,2022-08-01,5084,광진구,11215000046,국공립,서울특별시 광진구 동일로4길 52 (자양동),02-465-7476,37.53569746384655,127.06373373346464,"장애아통합,야간연장"
구립 인정어린이집,A,우수,우수,우수,우수,2023-05-01,5001,광진구,11215000343,국공립,서울특별시 광진구 동일로 242 (군자동),02-462-2758,37.55306493335688,127.07041421773184,일반
구립 자양1동 봄뜰어린이집,A,우수,우수,우수,우수,2023-02-01,5058,광진구,11215000345,국공립,서울특별시 광진구 자양로9길 30 (자양동 629-40),02-453-2260,37.533569421467725,127.08278332918296,야간연장
구립 자양2동어린이집,A,우수,우수,우수,우수,2022-07-01,5106,광진구,11215000014,국공립,서울특별시 광진구 자양로3가길 26 (자양동),02-453-7587,37.5288,127.08439,"장애아통합,야간연장"
구립 자양4동어린이집,B,우수,우수,보통,우수,2021-07-01,5073,광진구,11215000012,국공립,서울특별시 광진구 아차산로32길 17 (자양동),02-463-4959,37.53913,127.06851,"장애아통합,야간연장"
구립 자양도담어린이집,A,우수,우수,우수,우수,2022-03-01,5054,광진구,11215000360,국공립,서울특별시 광진구 아차산로44가길 5 (자양동 231-51),02-455-7000,37.5361775202346,127.07994629271572,일반
구립 자양어린이집,A,우수,우수,우수,우수,2022-09-01,5092,광진구,11215000031,국공립,서울특별시 광진구 자양번영로 35 (자양동),02-452-0748,37.532898,127.07523,"장애아통합,야간연장"
구립 자양호반써밋어린이집,A,우수,우수,우수,우수,2023-02-01,5074,광진구,11215000361,국공립,"서울특별시 광진구 능동로 69 어린이집(자양동,자양호반써밋)",02-466-7563,37.53751475114765,127.06861188272048,야간연장
구립 중곡1동 자람터어린이집,A,우수,우수,우수,우수,2021-08-01,4917,광진구,11215000333,국공립,서울특별시 광진구 긴고랑로8길 76,02-469-7942,37.5603868648636,127.07729259739236,"장애아통합,야간연장"
구립 중곡1동어린이집,B,보통,보통,우수,우수,2022-08-01,4915,광진구,11215000064,국공립,서울특별시 광진구 능동로43길 27-14 (중곡동),02-498-2878,37.560993,127.07966,"장애아통합,야간연장"
구립 중곡샛별어린이집,B,우수,우수,보통,우수,2020-01-01,4901,광진구,11215000035,국공립,서울특별시 광진구 동일로 458 (중곡동),02-435-4900,37.570957,127.08026,야간연장
구립 중곡하나어린이집,A,우수,우수,우수,우수,2022-08-01,4905,광진구,11215000359,국공립,서울특별시 광진구 동일로76길 59,02-465-1004,37.56807935572433,127.0819513397688,야간연장
구립 중곡햇님어린이집,A,우수,우수,우수,우수,2019-11-01,4935,광진구,11215000331,국공립,"서울특별시 광진구 능동로48길 49 101호(중곡동, 웰빙아파트)",02-453-6132,37.56201111410356,127.0851817335878,야간연장
구립 중앙어린이집,A,우수,우수,우수,우수,2022-08-01,5063,광진구,11215000053,국공립,서울특별시 광진구 자양로13다길 31 (자양동),02-446-9066,37.53294,127.07809,"장애아통합,야간연장"
구립 진성어린이집,D,우수,우수,개선필요,개선필요,2023-08-01,4940,광진구,11215000069,국공립,서울특별시 광진구 용마산로 152 (중곡동),02-454-3166,37.567162150678,127.0866541883676,야간연장
구립 파크스위트어린이집,A,우수,우수,우수,우수,2023-01-01,4978,광진구,11215000346,국공립,"서울특별시 광진구 광나루로 545 110동 1층(구의동, 래미안파크스위트)",02-456-8546,37.5452305351672,127.09056026719227,야간연장
구립 하늘땅별땅어린이집,A,우수,우수,우수,우수,2019-01-01,4995,광진구,11215000353,국공립,서울특별시 광진구 동일로56길 15 (군자동),02-498-3062,37.56647,126.977963,야간연장
구립 한가람어린이집,A,우수,우수,우수,우수,2023-03-01,5110,광진구,11215000329,국공립,서울특별시 광진구 자양번영로2길 30-1 (자양동),02-452-2800,37.53007113268252,127.0766693254258,야간연장
구립 행복마루어린이집,A,우수,우수,우수,우수,2019-11-01,5107,광진구,11215000352,국공립,서울특별시 광진구 뚝섬로56가길 10 (자양2동 현대3차 301-105),02-455-0516,37.52788128219277,127.08359159082292,일반
구립 효지어린이집,A,우수,우수,우수,우수,2022-07-01,5067,광진구,11215000052,국공립,서울특별시 광진구 아차산로36길 55 (자양동),02-2201-0558,37.536102,127.07382,야간연장
구립 휴먼시아어린이집,A,우수,우수,우수,우수,2021-07-01,4981,광진구,11215000335,국공립,"서울특별시 광진구 천호대로 716 102동 102호(구의동, 휴먼시아아파트)",02-456-9709,37.5482735626,127.0935718071,일반
구립 희망샘어린이집,A,우수,우수,우수,우수,2021-08-01,4944,광진구,11215000326,국공립,서울특별시 광진구 긴고랑로37길 8 (중곡동),02-458-1324,37.55930799481833,127.0902083382545,"장애아통합,야간연장"
구의미소어린이집,A,우수,우수,우수,우수,2023-08-01,4954,광진구,11215000067,민간,서울특별시 광진구 자양로 297 (구의2동),02-456-7336,37.5522137026,127.0923318802,야간연장
군자티움아이어린이집,A,우수,우수,우수,우수,2019-12-01,5002,광진구,11215000313,가정,서울특별시 광진구 동일로38길 8 1층(군자동),02-498-1279,37.551369684362776,127.06996119719744,일반
극동예랑어린이집,B,우수,우수,보통,우수,2023-07-01,4971,광진구,11215000301,가정,"서울특별시 광진구 아차산로 552 6동 109호(광장동, 극동아파트)",02-454-1140,37.543677621103605,127.10600859979928,일반
꼬꼬마어린이집,A,우수,우수,우수,우수,2023-09-01,5046,광진구,11215000051,가정,"서울특별시 광진구 아차산로 451 101동 105호(구의동, 세림리오빌)",02-447-0739,37.53924542620672,127.09208522155836,일반
꼬마별어린이집,A,우수,우수,우수,우수,2019-08-01,4952,광진구,11215000168,가정,"서울특별시 광진구 천호대로127길 33 103호(중곡동, 선화빌라11차)",02-456-3149,37.55412744278286,127.09045093878092,일반
꼬마사랑어린이집,A,우수,우수,우수,우수,2023-01-01,4913,광진구,11215000190,가정,서울특별시 광진구 긴고랑로8길 14 (중곡동),02-464-6788,37.562775,127.07862,일반
꿈꾸는어린이집,B,우수,보통,우수,우수,2019-12-01,4933,광진구,11215000134,민간,서울특별시 광진구 능동로50길 23 (중곡동),02-454-9797,37.56383,127.0847,야간연장
꿈나무어린이집,B,우수,우수,우수,보통,2022-08-01,5039,광진구,11215000063,민간,서울특별시 광진구 자양로 134 (구의동),02-444-5449,37.53964456531301,127.0834502087732,야간연장
꿈동산어린이집,A,우수,우수,우수,우수,2023-08-01,4996,광진구,11215000103,가정,"서울특별시 광진구 면목로4길 3 101호(군자동, 동산골든빌라)",02-462-0363,37.55582044998648,127.076066401214,일반
나섬어린이집,A,우수,우수,우수,우수,2022-04-01,4966,광진구,11215000220,가정,"서울특별시 광진구 광장로1나길 4 107호(광장동, 동부빌라)",02-6497-0033,37.5486646724613,127.10283344096226,"야간연장,24시간"
늘평화어린이집,C,우수,우수,개선필요,보통,2023-01-01,4908,광진구,11215000184,민간,서울특별시 광진구 능동로51길 17 (중곡동),02-499-7758,37.565952,127.083145,일반
다예린어린이집,A,우수,우수,우수,우수,2021-07-01,4967,광진구,11215000217,민간,서울특별시 광진구 광장로 65 (광장동),02-455-2366,37.54753175369659,127.10430751974648,일반
대서울어린이집,A,우수,우수,우수,우수,2022-03-01,5093,광진구,11215000175,가정,서울특별시 광진구 자양번영로3길 15 (자양동),02-457-9742,37.53425,127.06849,일반
동성어린이집,B,우수,우수,보통,우수,2022-06-01,5073,광진구,11215000055,민간,서울특별시 광진구 아차산로30길 25-10 (자양동),02-465-8688,37.5394614613,127.0676586874,야간연장
라온어린이집,B,우수,우수,보통,우수,2023-03-01,5046,광진구,11215000200,민간,서울특별시 광진구 아차산로63길 27 (구의동),02-456-4365,37.54050677630951,127.09213653303776,일반
리틀지니어스어린이집,B,우수,우수,보통,우수,2022-03-01,5040,광진구,11215000170,민간,서울특별시 광진구 자양로26길 50 (구의동),02-444-0717,37.5409973935446,127.08665158717898,야간연장
민들레어린이집,A,우수,우수,우수,우수,2020-01-01,5108,광진구,11215000118,민간,서울특별시 광진구 뚝섬로52마길 32 (자양동),02-456-5003,37.52885,127.080025,일반
보배어린이집,B,보통,우수,우수,우수,2023-03-01,5067,광진구,11215000086,민간,"서울특별시 광진구 아차산로36길 39 3동 1호(자양동, 자양우성7차아파트)",02-457-1565,37.53708104951532,127.07410165527595,일반
사랑숲어린이집,A,우수,우수,우수,우수,2022-09-01,4947,광진구,11215000315,민간,서울특별시 광진구 영화사로9길 95-2 (중곡동),02-452-8877,37.55779587125516,127.0956206489986,일반
사랑어린이집,A,우수,우수,우수,우수,2019-11-01,5070,광진구,11215000125,가정,서울특별시 광진구 뚝섬로35길 32 306동 102호(자양동),02-456-2910,37.5321,127.0704,일반
사임당어린이집,A,우수,우수,우수,우수,2022-01-01,5055,광진구,11215000174,민간,서울특별시 광진구 아차산로46가길 23 (자양동) 101호,02-455-0883,37.53567044212679,127.08191164834594,야간연장
산위의마을어린이집,A,우수,우수,우수,우수,2021-01-01,4926,광진구,11215000078,민간,서울특별시 광진구 용마산로7길 39 (중곡동),02-457-8953,37.55948,127.08544,일반
상상놀이터어린이집,A,우수,우수,우수,우수,2022-03-01,5112,광진구,11215000006,가정,서울특별시 광진구 자양로6길 9 (자양동),02-6406-4947,37.53208577711285,127.08644594687784,일반
서울교통공사대공원어린이집,A,우수,우수,우수,우수,2021-01-01,4998,광진구,11215000143,직장,서울특별시 광진구 능동로 247-1 (군자동),02-6311-7979,37.55230286556407,127.07625301932508,일반
솔로몬어린이집,B,우수,우수,보통,우수,2022-04-01,4906,광진구,11215000121,민간,서울특별시 광진구 긴고랑로7길 73 (중곡동),02-469-9976,37.566563,127.080666,야간연장
신나는어린이집,A,우수,우수,우수,우수,2022-01-01,5041,광진구,11215000030,민간,서울특별시 광진구 광나루로40길 78 (구의동),02-453-2814,37.54134188850016,127.0886886984901,야간연장
신예지어린이집,A,우수,우수,우수,우수,2023-01-01,4954,광진구,11215000203,민간,서울특별시 광진구 자양로45길 16 (구의2동),02-458-8538,37.55194632464166,127.09140347771005,야간연장
아기천사어린이집,A,우수,우수,우수,우수,2023-01-01,5092,광진구,11215000281,가정,"서울특별시 광진구 뚝섬로 576 201동 107호(자양동, 우성2차아파트)",070-7856-6645,37.5330303303644,127.073862401544,일반
아이누리어린이집,A,우수,우수,우수,우수,2023-02-01,5070,광진구,11215000282,가정,"서울특별시 광진구 뚝섬로33길 20 (자양3동, 한라아파트 101동 104호)",02-2201-1260,37.535292570837,127.06957424349,일반
아이다솜어린이집,A,우수,우수,우수,우수,2023-09-01,4993,광진구,11215000310,가정,서울특별시 광진구 자양로33길 50 (구의동),02-456-3672,37.54787016646401,127.08664129665208,일반
아이들세상어린이집,A,우수,우수,우수,우수,2023-02-01,4926,광진구,11215000153,민간,서울특별시 광진구 긴고랑로26길 31 (중곡동),02-3436-4611,37.5600545971,127.0845592781,일반
아이비키즈어린이집,A,우수,우수,우수,우수,2021-07-01,5070,광진구,11215000290,민간,"서울특별시 광진구 뚝섬로35길 14 (자양동, 한라아파트,  상가 B동 101호",02-446-1260,37.535118869758925,127.0707960160152,일반
아이사랑어린이집,A,우수,우수,우수,우수,2023-09-01,5102,광진구,11215000099,가정,서울특별시 광진구 자양로3길 60 (자양동),02-2201-5151,37.529705,127.08326,일반
아이스쿨어린이집,B,우수,우수,보통,우수,2020-08-01,4930,광진구,11215000087,민간,서울특별시 광진구 용마산로3길 91-4 (중곡동),02-447-0412,37.557007,127.083,일반
아이자람어린이집,A,우수,우수,우수,우수,2022-09-01,4974,광진구,11215000126,가정,"서울특별시 광진구 아차산로70길 62 304동 102호(광장동, 현대3단지아파트)",02-453-1486,37.5403763909,127.0989931629,일반
아이짐어린이집,A,우수,우수,우수,우수,2022-08-01,4977,광진구,11215000159,민간,서울특별시 광진구 광나루로37길 8 (구의2동),02-455-5220,37.54530700044164,127.08767037491802,야간연장
아힘나어린이집,A,우수,우수,우수,우수,2023-11-01,5086,광진구,11215000041,가정,"서울특별시 광진구 능동로3길 17 101동 106호(자양동, 한강성원아파트)",02-447-9335,37.5332454432866,127.06609626827746,일반
엄마사랑어린이집,A,우수,우수,우수,우수,2023-08-01,4904,광진구,11215000045,민간,서울특별시 광진구 면목로 164 (중곡동),02-452-0804,37.567726,127.08243,야간연장
영인어린이집,A,우수,우수,우수,우수,2020-01-01,4974,광진구,11215000325,가정,"서울특별시 광진구 아차산로 522 802동 101호 (현대아파트 8단지, 광장동)",02-444-2566,37.54181078804712,127.09898600713645,일반
영화사어린이집,B,우수,우수,보통,우수,2020-09-01,4948,광진구,11215000196,민간,서울특별시 광진구 영화사로 105 (구의동),02-453-5149,37.55405326841506,127.09772091076056,일반
예랑어린이집,A,우수,우수,우수,우수,2023-01-01,4955,광진구,11215000187,민간,서울특별시 광진구 자양로51길 11-12 (구의동),02-447-1477,37.55332590991607,127.0923602825368,일반
예아랑어린이집,A,우수,우수,우수,우수,2022-08-01,4901,광진구,11215000098,민간,서울특별시 광진구 동일로 456 성수교회 2층 1호(중곡동),02-2207-5292,37.57070569322798,127.08022418924844,야간연장
예일어린이집,A,우수,우수,우수,우수,2022-08-01,4954,광진구,11215000158,민간,서울특별시 광진구 자양로47길 11 (구의2동),02-452-7639,37.55220550580402,127.09180213858552,야간연장
예지어린이집,B,우수,우수,보통,우수,2023-08-01,5003,광진구,11215000028,민간,서울특별시 광진구 광나루로15길 17 (군자동),02-467-3333,37.54909584552267,127.0694464686963,일반
용곡어린이집,B,우수,우수,보통,우수,2023-02-01,4936,광진구,11215000132,가정,서울특별시 광진구 능동로48길 64 (중곡동) 운형빌라 101호,02-3437-6676,37.56783247559932,127.08666853417324,야간연장
워커힐행복어린이집,A,우수,우수,우수,우수,2019-12-01,4963,광진구,11215000286,직장,서울특별시 광진구 워커힐로 177 (광장동),02-450-6500,37.55613965501179,127.11051671913606,일반
으뜸어린이집,A,우수,우수,우수,우수,2022-01-01,5095,광진구,11215000091,민간,서울특별시 광진구 능동로4길 88 (자양동),02-458-3372,37.5308,127.071175,"장애아통합,방과후 통합,야간연장"
자양미래몬테소리어린이집,A,우수,우수,우수,우수,2022-12-01,5092,광진구,11215000141,가정,서울특별시 광진구 자양번영로3길 6 (자양동),02-457-3497,37.531796,127.074745,일반
젬마어린이집,A,우수,우수,우수,우수,2020-02-01,5015,광진구,11215000038,가정,서울특별시 광진구 동일로26길 51 (화양동),02-461-0788,37.544749850710296,127.06876811416656,일반
조은어린이집,A,우수,우수,우수,우수,2020-09-01,5058,광진구,11215000104,가정,서울특별시 광진구 뚝섬로57길 48 101호(극동하이빌),02-457-5529,37.53483,127.08099,야간연장
좋은어린이집,B,우수,우수,보통,우수,2021-08-01,5049,광진구,11215000185,민간,서울특별시 광진구 구의강변로3길 31 (구의동),02-454-8548,37.53620501420417,127.09032103451588,야간연장
중곡4동어린이집,A,우수,우수,우수,우수,2023-01-01,4944,광진구,11215000117,민간,서울특별시 광진구 긴고랑로 149-8 (중곡동),02-2201-2704,37.55910367286204,127.09155694202092,야간연장
즐거운산들어린이집,A,우수,우수,우수,우수,2023-11-01,4957,광진구,11215000005,협동,서울특별시 광진구 자양로50길 74 (구의2동),02-458-7122,37.5527353548039,127.09631592982342,일반
지안어린이집,A,우수,우수,우수,우수,2023-01-01,5102,광진구,11215000092,민간,서울특별시 광진구 뚝섬로58가길 26-4 (자양동),02-3436-3866,37.53051,127.08332,일반
키즈랜드어린이집,C,우수,우수,개선필요,우수,2022-01-01,4936,광진구,11215000164,가정,서울특별시 광진구 능동로48길 56 (중곡동),02-453-0860,37.56175845854066,127.08570208714656,야간연장
키즈팜어린이집,B,우수,우수,보통,우수,2023-12-01,5062,광진구,11215000082,민간,서울특별시 광진구 뚝섬로47길 33 (자양동),02-453-8030,37.53391,127.0787,일반
파크빌어린이집,B,우수,우수,보통,우수,2023-02-01,4983,광진구,11215000115,민간,서울특별시 광진구 아차산로 549 현대파크빌단지내(광장동),02-456-5677,37.54387933465931,127.10198056642628,일반
포도나무어린이집,A,우수,우수,우수,우수,2022-03-01,5108,광진구,11215000308,가정,"서울특별시 광진구 뚝섬로52마길 56 102동101호(자양동,로얄동아파트)",02-6212-0516,37.52809164117024,127.08138311158154,일반
푸르내어린이집,B,우수,우수,보통,우수,2023-12-01,4945,광진구,11215000015,민간,서울특별시 광진구 긴고랑로36길 15 (중곡동),02-3436-3488,37.558348378141744,127.08951885086938,야간연장
프라임사랑어린이집,A,우수,우수,우수,우수,2022-04-01,5119,광진구,11215000318,가정,"서울특별시 광진구 광나루로56길 29 11동 102호(구의동, 현대프라임아파트)",02-456-1279,37.53695344416799,127.09649055770689,일반
한라어린이집,B,우수,우수,보통,우수,2023-12-01,5070,광진구,11215000197,민간,서울특별시 광진구 뚝섬로33길 20 (자양동),02-2201-1264,37.535292570837065,127.0695742434909,일반
한울어린이집,A,우수,우수,우수,우수,2023-02-01,4925,광진구,11215000152,민간,서울특별시 광진구 천호대로117길 51 (중곡동),02-458-7005,37.5572235116531,127.08515349625566,야간연장
해달별어린이집,B,보통,우수,보통,우수,2019-12-01,5048,광진구,11215000154,가정,"서울특별시 광진구 구의강변로3가길 39 701동 102호(구의동,7단지 현대아파트 )",02-3437-3373,37.53692140980595,127.09137186410766,일반
해든어린이집,A,우수,우수,우수,우수,2022-01-01,5084,광진구,11215000016,민간,"서울특별시 광진구 능동로3마길 1 (자양동, 자양)",02-463-0942,37.53433687809229,127.06421956563756,야간연장
해오름어린이집,A,우수,우수,우수,우수,2023-01-01,4956,광진구,11215000008,민간,서울특별시 광진구 자양로50가길 41 (구의동),02-456-4242,37.55373881243763,127.09435709941354,일반
해피i어린이집,A,우수,우수,우수,우수,2023-05-01,5066,광진구,11215000131,가정,"서울특별시 광진구 아차산로36길 35 702-105(자양동,우성7차아파트 )",02-454-1565,37.53708104951532,127.07410165527595,일반
향기나무어린이집,A,우수,우수,우수,우수,2023-11-01,4971,광진구,11215000233,가정,서울특별시 광진구 아차산로 552 (광장동) 극동아파트 6동 105호,02-3436-3995,37.54672855764388,127.10374514721497,일반
현대몬테소리어린이집,A,우수,우수,우수,우수,2019-12-01,5118,광진구,11215000130,가정,"서울특별시 광진구 광나루로56길 32 207동 106호(구의동, 구의현대2단지아파트)",02-452-8348,37.5374556589018,127.09490716161916,일반
현대아이사랑어린이집,A,우수,우수,우수,우수,2022-04-01,5118,광진구,11215000309,가정,"서울특별시 광진구 광나루로56길 32 208동105호(구의동,구의현대아파트)",02-455-6780,37.53782582239961,127.09622011418512,일반
SDA꿈사랑어린이집,B,우수,우수,보통,우수,2021-02-01,2436,동대문구,11230000327,가정,"서울특별시 동대문구 망우로 95 102동 101호(휘경동,  롯데아파트)",02-960-5284,37.59105465638964,127.06376958676265,야간연장
가람어린이집,A,우수,우수,우수,우수,2023-01-01,2575,동대문구,11230000483,국공립,"서울특별시 동대문구 왕산로23길 89 101동 101호(제기동,이수브라운스톤아파트)",02-922-2018,37.5826694964,127.0348112107,일반
가온어린이집,A,우수,우수,우수,우수,2023-03-01,2644,동대문구,11230000470,국공립,"서울특별시 동대문구 천호대로89길 30 101동 109호(장안동,은하수드림필아파트)",02-2215-3342,37.5630703724,127.0691152165,일반
경희대학교직장어린이집,B,우수,우수,보통,우수,2022-06-01,2453,동대문구,11230000420,직장,서울특별시 동대문구 경희대로 26-6,02-961-9326,37.59621368,127.0548411,일반
경희의료원 어린이집,A,우수,우수,우수,우수,2020-01-01,2454,동대문구,11230000268,직장,서울특별시 동대문구 경희대로1나길 56-1,02-958-9850,37.59343863,127.0501452,야간연장
규현어린이집,B,우수,보통,보통,우수,2020-01-01,2423,동대문구,11230000232,가정,"서울특별시 동대문구 한천로58길 47 103동 102호(이문동, 쌍용아파트)",02-6221-4386,37.59999669,127.0684984,일반
그린어린이집,A,우수,우수,우수,우수,2022-07-01,2500,동대문구,11230000138,법인?단체등,서울특별시 동대문구 망우로 82,02-2213-7273,37.58929979,127.0645396,일반
글샘어린이집,C,우수,우수,우수,개선필요,2022-09-01,2564,동대문구,11230000038,민간,서울특별시 동대문구 천호대로35길 39 (용두동),02-969-0073,37.57506995,127.0416592,야간연장
길터어린이집,A,우수,우수,우수,우수,2022-06-01,2519,동대문구,11230000244,가정,서울특별시 동대문구 장한로36길 15 신부 3차 아파트 102호 길터어린이집 (장안동),02-2245-5123,37.57766942623981,127.07314481954111,일반
꼬꼬마어린이집,B,우수,보통,우수,보통,2021-01-01,2624,동대문구,11230000237,가정,서울특별시 동대문구 답십리로68길 52-4,02-2213-2020,37.57036913,127.0684373,일반
꼬마별어린이집,B,우수,우수,보통,우수,2022-03-01,2644,동대문구,11230000303,가정,"서울특별시 동대문구 천호대로89길 33 202동 102호(장안동, 형인허브빌아파트)",02-2245-3600,37.56336247,127.0677334,일반
꼬마숲아띠어린이집,A,우수,우수,우수,우수,2023-02-01,2598,동대문구,11230000450,가정,"서울특별시 동대문구 답십리로 130 309동 105호(답십리동, 래미안위브아파트)",02-6012-5176,37.57285657781719,127.052402402398,일반
꿀벌어린이집,A,우수,우수,우수,우수,2023-08-01,2524,동대문구,11230000214,가정,"서울특별시 동대문구 장안벚꽃로 167 224동 102호(장안동, 장안아파트2단지)",02-2249-3739,37.57389111,127.0752889,일반
꿈동산어린이집,A,우수,우수,우수,우수,2020-01-01,2532,동대문구,11230000248,가정,"서울특별시 동대문구 사가정로 148 103동 103호(전농동, SK아파트)",02-2243-3016,37.57651405,127.0604564,야간연장
꿈동이어린이집,A,우수,우수,우수,우수,2022-08-01,2598,동대문구,11230000462,국공립,"서울특별시 동대문구 답십리로 130 108동 106호(답십리동,래미안위브)",02-2249-9520,37.5728565778,127.0524024024,일반
꿈둥이어린이집,A,우수,우수,우수,우수,2021-08-01,2638,동대문구,11230000457,가정,"서울특별시 동대문구 장안벚꽃로 107 105동 104호 (장안동, 현대홈타운아파트)",02-3394-8300,37.57072760841874,127.07623216090718,일반
꿈마루어린이집,A,우수,우수,우수,우수,2023-01-01,2492,동대문구,11230000006,국공립,서울특별시 동대문구 전농로36길 29-3 꿈마루어린이집,02-2213-7974,37.58550218934108,127.05404161683876,"장애아통합,야간연장"
꿈쟁이어린이집,A,우수,우수,우수,우수,2023-11-01,2423,동대문구,11230000227,가정,"서울특별시 동대문구 한천로58길 47 102동 102호(이문동, 쌍용아파트)",02-964-8213,37.59999669,127.0684984,일반
노블레스어린이집,A,우수,우수,우수,우수,2023-01-01,2551,동대문구,11230000482,국공립,"서울특별시 동대문구 답십리로23길 30 관리동(전농동,롯데캐슬노블레스아파트)",02-6933-7336,37.56647,126.977963,일반
누리보듬어린이집,A,우수,우수,우수,우수,2022-04-01,2521,동대문구,11230000467,국공립,"서울특별시 동대문구 장안벚꽃로1길 7 1003동 104호(장안동, 힐스테이트아파트)",02-2212-1256,37.57647898630614,127.07501540802065,일반
느티나무어린이집,A,우수,우수,우수,우수,2022-07-01,2553,동대문구,11230000460,국공립,"서울특별시 동대문구 사가정로 65 201동 101호(전농동,래미안크레시티)",02-2212-3373,37.57467302815679,127.05075290067875,일반
늘봄어린이집,A,우수,우수,우수,우수,2021-08-01,2437,동대문구,11230000493,민간,서울특별시 동대문구 외대역동로1길 60-3 휘경해모로 관리동,02-3390-3094,37.59111843409087,127.06244488137038,일반
늘사랑어린이집,A,우수,우수,우수,우수,2022-01-01,2488,동대문구,11230000070,국공립,서울특별시 동대문구 제기로38길 50 동성빌딩  2층,02-965-6096,37.58419445,127.049084,야간연장
늘푸른어린이집,A,우수,우수,우수,우수,2022-07-01,2593,동대문구,11230000067,민간,서울특별시 동대문구 서울시립대로 14 청계한신휴플러스아파트 관리동 (답십리동),02-2212-8439,37.57246644600364,127.04591355681065,야간연장
다사랑어린이집,A,우수,우수,우수,우수,2021-09-01,2638,동대문구,11230000435,가정,"서울특별시 동대문구 장안벚꽃로 107 116-106(장안동, 현대홈타운아파트)",02-3390-5550,37.57105673850968,127.07511297854766,일반
다솔어린이집,A,우수,우수,우수,우수,2023-02-01,2428,동대문구,11230000014,민간,서울특별시 동대문구 휘경로 45 (휘경동),02-965-0471,37.59470651,127.064943,야간연장
다솔창의어린이집,A,우수,우수,우수,우수,2021-07-01,2428,동대문구,11230000064,민간,서울특별시 동대문구 휘경로 45,02-960-4281,37.59335698,127.0648568,일반
다온어린이집,A,우수,우수,우수,우수,2022-09-01,2553,동대문구,11230000463,국공립,"서울특별시 동대문구 사가정로 65 212동 105호(전농동,래미안크레시티)",02-2214-3155,37.56647,126.977963,일반
다함어린이집,A,우수,우수,우수,우수,2023-08-01,2553,동대문구,11230000469,국공립,"서울특별시 동대문구 사가정로 65 (전농동, 래미안크레시티아파트)",02-2249-9636,37.56647,126.977963,일반
단비어린이집,A,우수,우수,우수,우수,2022-07-01,2594,동대문구,11230000015,국공립,서울특별시 동대문구 답십리로26길 12 (전농동),02-2212-2207,37.5751723737,127.0475815691,야간연장
대림 어린이집,A,우수,우수,우수,우수,2023-02-01,2407,동대문구,11230000279,국공립,"서울특별시 동대문구 한천로63길 10 115동 103호 (이문동, 이편한세상아파트)",02-6212-5414,37.60336100688493,127.06593176195103,일반
대림늘푸른어린이집,A,우수,우수,우수,우수,2023-09-01,2610,동대문구,11230000207,국공립,서울특별시 동대문구 답십리로60길 40 (답십리동),02-2217-7900,37.57112454,127.0643787,야간연장
더불어숲어린이집,B,보통,우수,우수,보통,2022-09-01,2535,동대문구,11230000340,민간,서울특별시 동대문구 한천로33길 11 래미안 엘파인아파트 단지동 (답십리동),02-6253-1004,37.57590458,127.0655189,일반
데시앙어린이집,A,우수,우수,우수,우수,2020-07-01,2530,동대문구,11230000492,국공립,"서울특별시 동대문구 장한로27길 37 관리동(장안동, 더퍼스트데시앙아파트)",02-6053-6601,37.56647,126.977963,일반
도담어린이집,A,우수,우수,우수,우수,2022-09-01,2507,동대문구,11230000026,국공립,서울특별시 동대문구 사가정로17길 21 구립 도담 어린이집,02-2244-8703,37.5787544,127.0605018,"장애아통합,야간연장"
동그라미어린이집,A,우수,우수,우수,우수,2022-09-01,2632,동대문구,11230000294,가정,"서울특별시 동대문구 천호대로77길 63 101동 104호(장안동, 대명이룸아파트)",02-2248-0103,37.56480972,127.0622934,일반
동대문구청직장어린이집,A,우수,우수,우수,우수,2023-05-01,2565,동대문구,11230000117,직장,서울특별시 동대문구 고산자로28길 13 (용두동),02-6929-2601,37.57439451111949,127.03989678486758,일반
동대문어린이집,A,우수,우수,우수,우수,2022-06-01,2601,동대문구,11230000116,국공립,서울특별시 동대문구 사가정로2길 13 (답십리동),02-2213-7994,37.5711920739042,127.0511832346515,"장애아통합,야간연장"
동아개구쟁이어린이집,C,우수,우수,우수,개선필요,2022-01-01,2612,동대문구,11230000283,가정,"서울특별시 동대문구 한천로11길 10-1 104동 103호(답십리동, 동아아파트)",02-2217-1233,37.56927633,127.061745,일반
동아어린이집,A,우수,우수,우수,우수,2022-12-01,2612,동대문구,11230000274,민간,서울특별시 동대문구 한천로11길 10-1 동아아파트 단지내 유치원동 (답십리동),02-2242-8337,37.56927633,127.061745,일반
동화마을어린이집,A,우수,우수,우수,우수,2022-07-01,2496,동대문구,11230000246,가정,서울특별시 동대문구 망우로14길 18 2층 동화마을 어린이집,02-2245-5141,37.58902959,127.0602425,일반
동화어린이집,A,우수,우수,우수,우수,2019-09-01,2497,동대문구,11230000032,민간,서울특별시 동대문구 망우로12가길 20 (휘경동),02-2244-9118,37.58868271,127.0602457,"장애아통합,야간연장"
라온어린이집,A,우수,우수,우수,우수,2023-09-01,2590,동대문구,11230000454,가정,서울특별시 동대문구 정릉천동로 16 106동 102호 (용두두산위브아파트),010-7723-7257,37.57346839759568,127.03530501011689,일반
리치빅스맘어린이집,B,우수,보통,우수,보통,2021-08-01,2577,동대문구,11230000453,민간,"서울특별시 동대문구 한빛로 73 103동 101 (용두동, 롯데캐슬리치아파트)",02-6406-2722,37.579416295498746,127.03051678711464,일반
메꽃어린이집,A,우수,우수,우수,우수,2022-01-01,2637,동대문구,11230000007,국공립,서울특별시 동대문구 답십리로 320-1,02-2212-6096,37.57167207,127.0761235,야간연장
미드카운티어린이집,B,우수,우수,보통,우수,2023-01-01,2540,동대문구,11230000481,국공립,"서울특별시 동대문구 답십리로 141 (답십리동,래미안미드카운티아파트)",02-6713-1410,37.57451643492074,127.05584264823102,일반
미소가득한어린이집,A,우수,우수,우수,우수,2023-05-01,2516,동대문구,11230000325,가정,서울특별시 동대문구 사가정로23길 40 경남하이빌102호 (장안동),02-6012-4345,37.58044939,127.0701923,야간연장
배봉어린이집,A,우수,우수,우수,우수,2023-03-01,2516,동대문구,11230000054,국공립,서울특별시 동대문구 사가정로25길 51 (장안동),02-2217-2070,37.58114475,127.0706184,야간연장
벽산이엘어린이집,A,우수,우수,우수,우수,2022-12-01,2477,동대문구,11230000073,민간,서울특별시 동대문구 약령시로 25 안암골벽산아파트 단지내 (제기동),02-929-1697,37.58357773,127.0314135,일반
별밭어린이집,A,우수,우수,우수,우수,2023-11-01,2624,동대문구,11230000135,국공립,서울특별시 동대문구 답십리로66길 3 (장안동),02-2215-0248,37.57233065,127.0685453,야간연장
보령어린이집,A,우수,우수,우수,우수,2023-11-01,2407,동대문구,11230000217,가정,"서울특별시 동대문구 이문로54길 36 101동 103호(이문동, 이문e편한세상아파트)",02-966-3066,37.60448057,127.0650075,일반
보림어린이집,A,우수,우수,우수,우수,2022-06-01,2426,동대문구,11230000104,국공립,서울특별시 동대문구 외대역동로 114-1,02-957-3805,37.59768416,127.0654764,"영아전담,야간연장"
브레인에듀어린이집,B,보통,우수,우수,우수,2021-07-01,2638,동대문구,11230000243,가정,"서울특별시 동대문구 장안벚꽃로 107 116동 103호(장안동, 현대홈타운아파트)",02-2241-7879,37.56966129,127.0746722,야간연장
빛나어린이집,B,우수,우수,보통,우수,2023-11-01,2546,동대문구,11230000136,민간,서울특별시 동대문구 전농로23길 47 (전농동),02-2212-0406,37.5791048,127.0538336,야간연장
빛초롱어린이집,A,우수,우수,우수,우수,2023-08-01,2532,동대문구,11230000099,민간,서울특별시 동대문구 사가정로 168 SK아파트 제2관리소 단지동 (전농동),02-2244-5550,37.57651405,127.0604564,야간연장
사과나무어린이집,A,우수,우수,우수,우수,2020-01-01,2524,동대문구,11230000295,가정,"서울특별시 동대문구 장안벚꽃로 167 205동 102호(장안동, 장안아파트2단지)",02-446-3791,37.57389111,127.0752889,일반
사군자어린이집,B,우수,우수,우수,보통,2023-02-01,2635,동대문구,11230000206,민간,서울특별시 동대문구 장한로5길 45 (장안동),02-2246-5801,37.5650925,127.0638644,일반
사랑샘어린이집,A,우수,우수,우수,우수,2022-04-01,2442,동대문구,11230000221,가정,"서울특별시 동대문구 이문로12길 3-10 107동 101호(이문동, 삼성래미안아파트2차)",02-964-9951,37.59351274,127.0603039,일반
사랑해어린이집,A,우수,우수,우수,우수,2022-08-01,2422,동대문구,11230000254,가정,"서울특별시 동대문구 한천로58길 139 103동 102호(이문동, 대우아파트)",02-967-5580,37.60253512,127.0697816,일반
삼성어린이집,A,우수,우수,우수,우수,2023-02-01,2624,동대문구,11230000494,국공립,서울특별시 동대문구 한천로26길 43,02-2243-5033,37.56486896282023,126.97822270386972,야간연장
삼성영재어린이집,A,우수,우수,우수,우수,2023-11-01,2505,동대문구,11230000158,국공립,서울특별시 동대문구 전농로 192 삼성아파트 단지내 (전농동),02-2212-1212,37.5818945,127.0555305,야간연장
새서울어린이집,A,우수,우수,우수,우수,2023-08-01,2623,동대문구,11230000447,가정,서울특별시 동대문구 한천로26길 23 (장안동),02-2245-4804,37.5717210137833,127.06723959579892,일반
새싹어린이집,A,우수,우수,우수,우수,2019-12-01,2512,동대문구,11230000078,국공립,"서울특별시 동대문구 한천로 248 101동 102호(휘경동, 주공아파트)",02-2248-2467,37.583237,127.0719,일반
새하늘어린이집,A,우수,우수,우수,우수,2019-01-01,2491,동대문구,11230000430,민간,서울특별시 동대문구 왕산로 312 제칠안식일예수재림교 본부교회,02-967-0006,37.58769139612186,127.05366225466484,일반
샘터어린이집,A,우수,우수,우수,우수,2021-07-01,2467,동대문구,11230000326,가정,"서울특별시 동대문구 고산자로 534 105동 101호(제기동, 한신아파트)",070-7655-5803,37.58872123,127.0390668,일반
서울시립대학교직장어린이집,A,우수,우수,우수,우수,2023-11-01,2504,동대문구,11230000471,직장,서울특별시 동대문구 서울시립대로 163 서울시립대학교직장어린이집,02-2213-9566,37.5825764944,127.0599900508,일반
성은어린이집,B,우수,우수,보통,우수,2020-03-01,2423,동대문구,11230000069,민간,서울특별시 동대문구 한천로 434 (이문동),02-967-7178,37.5991872,127.0678822,일반
세빛어린이집,A,우수,우수,우수,우수,2020-01-01,2501,동대문구,11230000433,민간,"서울특별시 동대문구 망우로20길 86 104동 1층 (휘경동, 브라운스톤아파트)",02-3394-5569,37.59042920111883,127.06652045193186,야간연장
솔샘숲어린이집,B,우수,우수,보통,우수,2023-02-01,2598,동대문구,11230000445,민간,"서울특별시 동대문구 답십리로 130 1단지 (답십리동, 래미안위브아파트)",02-3394-7724,37.57285657781719,127.052402402398,일반
솔솔어린이집,A,우수,우수,우수,우수,2023-03-01,2513,동대문구,11230000477,국공립,서울특별시 동대문구 장안벚꽃로5길 19 2층(휘경동),02-2249-4924,37.581479918005904,127.07435813095859,야간연장
솔향기어린이집,A,우수,우수,우수,우수,2023-08-01,2639,동대문구,11230000478,국공립,서울특별시 동대문구 장한로26다길 77,02-2213-1095,37.56833136418697,127.07200196671872,일반
송림어린이집,A,우수,우수,우수,우수,2022-08-01,2524,동대문구,11230000216,가정,"서울특별시 동대문구 장안벚꽃로 167 209동 103호(장안동, 장안아파트2단지)",02-2212-8480,37.57389111,127.0752889,일반
신나는어린이집,A,우수,우수,우수,우수,2023-08-01,2427,동대문구,11230000252,국공립,"서울특별시 동대문구 외대역동로 101 102동 102호(이문동, 중앙하이츠아파트)",02-969-5906,37.59644915,127.0646052,일반
신현대어린이집,A,우수,우수,우수,우수,2023-02-01,2461,동대문구,11230000033,국공립,서울특별시 동대문구 이문로1길 21 신현대아파트 관리소동 1층 (회기동),02-959-7989,37.58955783,127.052047,야간연장
아뜰어린이집,A,우수,우수,우수,우수,2022-04-01,2581,동대문구,11230000171,민간,서울특별시 동대문구 안암로 6 대광고등학교내 (신설동),02-924-0235,37.57788303,127.0247205,일반
아라어린이집,A,우수,우수,우수,우수,2021-07-01,2641,동대문구,11230000458,가정,"서울특별시 동대문구 장한로14길 81 106동 104호 (장안동, 삼성래미안1차아파트)",02-6071-0012,37.5668166823,127.0721793498,일반
아이꿈어린이집,A,우수,우수,우수,우수,2021-08-01,2609,동대문구,11230000096,가정,"서울특별시 동대문구 답십리로 210-30 2동 114호(답십리동, 한신아파트)",02-6495-0058,37.57086836,127.0625253,일반
아이뜰어린이집,A,우수,우수,우수,우수,2019-01-01,2533,동대문구,11230000485,국공립,"서울특별시 동대문구 사가정로 190 13동 101호(전농동,전농우성아파트)",02-2215-6395,37.57669625685016,127.06572711566108,일반
아이랑어린이집,A,우수,우수,우수,우수,2019-01-01,2429,동대문구,11230000488,국공립,"서울특별시 동대문구 한천로55길 9 102동 109호(이문동,이문동삼익아파트)",02-960-0057,37.59606651345992,127.0676521564817,일반
아이미소어린이집,A,우수,우수,우수,우수,2023-05-01,2508,동대문구,11230000465,국공립,"서울특별시 동대문구 전농로16길 51 107동 104호(전농동,래미안아름숲)",02-2212-2293,37.5783343868,127.0604394791,일반
아이사랑어린이집,A,우수,우수,우수,우수,2021-07-01,2553,동대문구,11230000442,가정,"서울특별시 동대문구 사가정로 65 206동 104호 (전농1동, 래미안크레시티)",02-2242-2290,37.5755066723418,127.04969642692222,일반
아이세상어린이집,B,우수,우수,우수,보통,2022-07-01,2638,동대문구,11230000170,가정,"서울특별시 동대문구 장안벚꽃로 107 115동 104호(장안동, 현대홈타운아파트)",02-2249-5624,37.56966129,127.0746722,야간연장
아이숲어린이집,A,우수,우수,우수,우수,2021-07-01,2536,동대문구,11230000323,가정,"서울특별시 동대문구 전농로10길 20 101동 102호(답십리동, 청솔우성아파트)",02-2212-0567,37.57443523306039,127.05840236947569,일반
앙팡어린이집,A,우수,우수,우수,우수,2022-07-01,2484,동대문구,11230000152,국공립,서울특별시 동대문구 홍릉로10길 18 (청량리동),02-969-5141,37.58513457,127.044662,"영아전담,야간연장"
애일선교어린이집,A,우수,우수,우수,우수,2023-11-01,2584,동대문구,11230000095,민간,서울특별시 동대문구 왕산로16길 28 (용두동),02-921-3825,37.57660266,127.0309582,야간연장
애플키즈어린이집,A,우수,우수,우수,우수,2021-07-01,2553,동대문구,11230000439,가정,서울특별시 동대문구 사가정로 65 래미안크레시티아파트 110동 101호,02-2246-9936,37.5755066723418,127.04969642692222,일반
어린왕자어린이집,A,우수,우수,우수,우수,2023-09-01,2412,동대문구,11230000061,민간,서울특별시 동대문구 신이문로6길 10 (이문동),02-959-5977,37.60245440759991,127.06300472365935,야간연장
언덕위에 하얀 어린이집,A,우수,우수,우수,우수,2019-12-01,2474,동대문구,11230000285,국공립,서울특별시 동대문구 약령시로3길 38 (제기동),02-925-3150,37.58404256,127.0322793,"야간연장,24시간"
연세어린이집,B,우수,우수,보통,우수,2023-08-01,2527,동대문구,11230000504,국공립,서울특별시 동대문구 장한로27나길 65,02-2245-6390,37.56647,126.977963,야간연장
영신어린이집,B,우수,우수,보통,우수,2022-06-01,2558,동대문구,11230000066,법인?단체등,서울특별시 동대문구 답십리로 51 (전농동),02-2213-0304,37.57658691,127.0470649,야간연장
예나어린이집,A,우수,우수,우수,우수,2022-06-01,2479,동대문구,11230000113,국공립,서울특별시 동대문구 경동시장로23길 14 (제기동),02-967-2229,37.58572845,127.0394563,"장애아통합,야간연장"
예닮어린이집,A,우수,우수,우수,우수,2019-01-01,2588,동대문구,11230000486,국공립,"서울특별시 동대문구 무학로26길 30 1동 103호(용두동,신동아아파트)",02-6462-2842,37.573096094093415,127.0320313717531,일반
예든어린이집,A,우수,우수,우수,우수,2023-11-01,2639,동대문구,11230000191,가정,"서울특별시 동대문구 장한로26다길 84 201동 105호(장안동, 현대홈타운아파트)",02-6414-8600,37.5688279846394,127.07171946081937,일반
예뜰어린이집,A,우수,우수,우수,우수,2022-01-01,2541,동대문구,11230000436,국공립,서울특별시 동대문구 답십리로45길 47,02-2216-6509,37.57436724564288,127.05103145301548,야간연장
예성어린이집,A,우수,우수,우수,우수,2021-09-01,2553,동대문구,11230000440,가정,"서울특별시 동대문구 사가정로 65 304동 101호 (전농동, 래미안크레시티아파트)",02-6745-8809,37.5755066723418,127.04969642692222,야간연장
예은어린이집,A,우수,우수,우수,우수,2023-11-01,2598,동대문구,11230000448,가정,"서울특별시 동대문구 답십리로 130 106동 106호 (답십리동, 래미안위브아파트)",02-2212-5673,37.57285657781719,127.052402402398,일반
예일어린이집,B,우수,우수,보통,우수,2019-12-01,2407,동대문구,11230000083,국공립,"서울특별시 동대문구 한천로63길 10 106동 104호(이문동, 이문e편한세상아파트)",02-965-3007,37.60448057,127.0650075,일반
예지슬어린이집,A,우수,우수,우수,우수,2021-08-01,2553,동대문구,11230000459,국공립,"서울특별시 동대문구 사가정로 65 109동 101호(전농동, 래미안크레시티아파트)",02-2246-2226,37.5755066723,127.0496964269,일반
예지어린이집,A,우수,우수,우수,우수,2023-11-01,2521,동대문구,11230000302,민간,서울특별시 동대문구 장안벚꽃로1길 7 힐스테이트 단지내 (장안동),02-3394-6679,37.576376569201024,127.07454776862284,야간연장
오르다어린이집,A,우수,우수,우수,우수,2023-02-01,2606,동대문구,11230000125,민간,서울특별시 동대문구 답십리로48길 24 (답십리동),02-2246-0532,37.57178709,127.057731,야간연장
용두동어린이집,A,우수,우수,우수,우수,2023-02-01,2577,동대문구,11230000441,민간,서울특별시 동대문구 왕산로17길 14 (용두동),02-921-3119,37.579434078975815,127.03141794319679,일반
용두희망어린이집,A,우수,우수,우수,우수,2021-07-01,2578,동대문구,11230000049,국공립,서울특별시 동대문구 무학로49길 75 (용두동),02-923-0836,37.57969079,127.0267201,야간연장
우리누리어린이집,A,우수,우수,우수,우수,2022-04-01,2489,동대문구,11230000306,직장,서울특별시 동대문구 약령시로 159 (청량리동),02-963-5885,37.5832263,127.0478011,일반
우성그린어린이집,B,보통,우수,우수,우수,2022-06-01,2535,동대문구,11230000112,가정,"서울특별시 동대문구 답십리로59길 33 102동 101호(답십리동, 우성그린아파트)",02-6213-0623,37.57479158,127.0659471,야간연장
우아세어린이집,A,우수,우수,우수,우수,2023-12-01,2606,동대문구,11230000196,국공립,서울특별시 동대문구 답십리로48길 38 답십리2동,02-2216-3355,37.57114382472408,127.05770314008834,야간연장
위브어린이집,A,우수,우수,우수,우수,2023-05-01,2620,동대문구,11230000476,국공립,"서울특별시 동대문구 황물로15길 25 (답십리동,두산위브아파트)",02-2212-9919,37.566561805,127.0571882,일반
유마어린이집,A,우수,우수,우수,우수,2022-06-01,2464,동대문구,11230000030,국공립,서울특별시 동대문구 제기로31길 10-3 (청량사내) (청량리동),02-965-4121,37.58810833,127.0472679,야간연장
이문어린이집,A,우수,우수,우수,우수,2023-08-01,2406,동대문구,11230000005,국공립,서울특별시 동대문구 신이문로 9 (이문동),02-969-2052,37.60358084,127.0630131,야간연장
이문현대어린이집,A,우수,우수,우수,우수,2023-01-01,2422,동대문구,11230000474,국공립,"서울특별시 동대문구 한천로58길 107 (이문동, 현대아파트)",02-959-1153,37.60052947012829,127.07014185036957,일반
이솝어린이집,A,우수,우수,우수,우수,2019-12-01,2467,동대문구,11230000160,국공립,"서울특별시 동대문구 고산자로 534 107동 101호(제기동, 한신아파트)",02-959-3434,37.58872123,127.0390668,일반
이편한오렌지어린이집,A,우수,우수,우수,우수,2023-02-01,2407,동대문구,11230000475,국공립,서울특별시 동대문구 한천로63길 10,02-966-0906,37.60458659240054,127.06550250220346,일반
이화어린이집,B,우수,우수,보통,우수,2019-12-01,2639,동대문구,11230000489,민간,서울특별시 동대문구 장한로26다길 38,02-2212-6717,37.56422030975272,127.06865900497166,야간연장
자연어린이집,A,우수,우수,우수,우수,2019-01-01,2535,동대문구,11230000487,국공립,"서울특별시 동대문구 한천로37길 33 104동 104호(답십리동,래미안엘파인아파트)",02-2213-1566,37.57585882087399,127.06484338665496,일반
장안어린이집,B,우수,우수,보통,우수,2022-06-01,2643,동대문구,11230000172,국공립,서울특별시 동대문구 천호대로89길 58 (장안동),02-2212-5178,37.56404124,127.0694828,야간연장
장안현대어린이집,B,우수,우수,우수,보통,2023-07-01,2638,동대문구,11230000208,민간,서울특별시 동대문구 장안벚꽃로 107 현대홈타운아파트 단지동 (장안동),02-2214-7051,37.56966129,127.0746722,일반
조앤아이어린이집,A,우수,우수,우수,우수,2023-01-01,2524,동대문구,11230000029,가정,"서울특별시 동대문구 장안벚꽃로 167 215동 102호(장안동, 장안아파트2단지)",02-2246-2789,37.57389111,127.0752889,야간연장
조은어린이집,B,우수,우수,보통,우수,2023-08-01,2613,동대문구,11230000183,민간,서울특별시 동대문구 답십리로56길 21-1 두산아파트단지내 조은어린이집,02-2244-4220,37.56982902,127.0600898,일반
중앙삐아제어린이집,A,우수,우수,우수,우수,2023-01-01,2409,동대문구,11230000085,민간,서울특별시 동대문구 한천로63길 5-8,02-966-9614,37.60401065,127.0667677,야간연장
중앙어린이집,A,우수,우수,우수,우수,2023-09-01,2532,동대문구,11230000124,가정,"서울특별시 동대문구 사가정로 148 111동 101호(전농동, SK아파트)",02-2247-5043,37.57651405,127.0604564,일반
지니맘어린이집,A,우수,우수,우수,우수,2023-11-01,2616,동대문구,11230000307,가정,서울특별시 동대문구 한천로11다길 86 (답십리동),070-8111-0030,37.5683665016,127.0590142491,일반
천사나라어린이집,A,우수,우수,우수,우수,2023-05-01,2463,동대문구,11230000245,가정,"서울특별시 동대문구 제기로 131 106동 103호(청량리동, 청량한2차신아파트)",02-967-0172,37.58799269,127.0492407,야간연장
청계포레어린이집,A,우수,우수,우수,우수,2023-02-01,2587,동대문구,11230000495,국공립,서울특별시 동대문구 무학로 89 (청계포레센트럴아파트),02-6212-0770,37.56647,126.977963,일반
청량리어린이집,A,우수,우수,우수,우수,2021-07-01,2480,동대문구,11230000250,국공립,서울특별시 동대문구 홍릉로17길 38 (제기동),02-6080-6404,37.586190422838,127.04091200526692,야간연장
청솔어린이집,A,우수,우수,우수,우수,2023-09-01,2536,동대문구,11230000479,국공립,서울특별시 동대문구 전농로10길 20 (답십리동),02-3394-5026,37.574605268412014,127.05845768840064,일반
청아어린이집,A,우수,우수,우수,우수,2023-08-01,2597,동대문구,11230000480,국공립,"서울특별시 동대문구 천호대로55길 11 (답십리동,힐스테이트청계아파트 내)",02-3394-9025,37.57172496478119,127.04696301284568,일반
초롱하나어린이집,A,우수,우수,우수,우수,2022-01-01,2592,동대문구,11230000145,국공립,서울특별시 동대문구 황물로 32 서울특별시 동대문구 황물로 34(답십리동) 초롱 어린이집,02-2212-6314,37.57399227,127.045324,"영아전담,야간연장"
칼비테영재어린이집,A,우수,우수,우수,우수,2023-11-01,2524,동대문구,11230000126,국공립,"서울특별시 동대문구 장안벚꽃로 167 214동 102호(장안동, 장안아파트2단지)",02-2215-0010,37.57389111,127.0752889,일반
키즈윌어린이집,A,우수,우수,우수,우수,2022-03-01,2550,동대문구,11230000329,민간,서울특별시 동대문구 답십리로23나길 9 (전농동),02-2215-7942,37.58025038,127.0523054,일반
킨더베베어린이집,A,우수,우수,우수,우수,2022-09-01,2502,동대문구,11230000428,가정,"서울특별시 동대문구 외대역동로 14 103동 1층 관리동 (휘경동,센트레빌아파트)",070-4100-3708,37.59101617,127.0683997,일반
태양하나어린이집,A,우수,우수,우수,우수,2022-03-01,2592,동대문구,11230000142,국공립,서울특별시 동대문구 황물로 32,02-2245-9544,37.57399227,127.045324,"야간연장,휴일보육"
파랑새어린이집,A,우수,우수,우수,우수,2023-07-01,2638,동대문구,11230000308,국공립,"서울특별시 동대문구 장안벚꽃로 107 108동 102호(장안동, 현대홈타운아파트)",02-2243-3935,37.56966129,127.0746722,일반
파크자이어린이집,A,우수,우수,우수,우수,2023-11-01,2616,동대문구,11230000484,국공립,"서울특별시 동대문구 답십리로56길 105 관리동(답십리동,파크자이아파트)",02-3394-7987,37.56647,126.977963,일반
포르테몬테소리어린이집,A,우수,우수,우수,우수,2022-12-01,2642,동대문구,11230000276,민간,서울특별시 동대문구 장한로12길 76-1,02-2247-1263,37.56423259,127.0714692,야간연장
푸른나무어린이집,A,우수,우수,우수,우수,2022-07-01,2641,동대문구,11230000200,민간,서울특별시 동대문구 장한로14길 81 삼성래미안1차아파트 관리동 1층,02-2215-3373,37.5659457,127.0727599,일반
푸른하늘어린이집,B,우수,우수,보통,우수,2022-07-01,2625,동대문구,11230000107,국공립,서울특별시 동대문구 답십리로66길 75-4 (장안동 393-2),02-2212-1036,37.56892726,127.0669282,"장애아통합,야간연장"
하랑어린이집,A,우수,우수,우수,우수,2023-09-01,2598,동대문구,11230000449,가정,"서울특별시 동대문구 답십리로 130 107동 106호 (답십리동, 래미안위브아파트)",02-579-1547,37.57285657781719,127.052402402398,일반
하은어린이집,A,우수,우수,우수,우수,2023-01-01,2523,동대문구,11230000273,민간,서울특별시 동대문구 장한로28가길 11 SM해그린아파트 단지동 (장안동),02-2242-6185,37.57359063765204,127.07246832308488,일반
한국국방연구원 직장어린이집,A,우수,우수,우수,우수,2023-12-01,2455,동대문구,11230000456,직장,서울특별시 동대문구 회기로 85 800동 (회기동),02-959-2169,37.595037969259295,127.04632147315448,일반
한국외국어대학교어린이집,A,우수,우수,우수,우수,2022-12-01,2449,동대문구,11230000464,직장,서울특별시 동대문구 천장산로9길 11,02-2173-2518,37.5990516765,127.0570817007,일반
한빛어린이집,A,우수,우수,우수,우수,2023-04-01,2449,동대문구,11230000163,국공립,서울특별시 동대문구 천장산로7길 16 (이문동),02-2135-5861,37.598485672505454,127.05699152673697,일반
한신어린이집,A,우수,우수,우수,우수,2023-08-01,2463,동대문구,11230000010,민간,서울특별시 동대문구 제기로 131 청량한신2차아파트 단지동 (청량리동),02-957-0656,37.58799269,127.0492407,일반
한아름어린이집,A,우수,우수,우수,우수,2022-07-01,2524,동대문구,11230000151,국공립,서울특별시 동대문구 장안벚꽃로 167 삼성래미안2차아파트단지내 (장안동),02-2245-0105,37.57389111,127.0752889,야간연장
한울어린이집,A,우수,우수,우수,우수,2022-01-01,2638,동대문구,11230000466,국공립,"서울특별시 동대문구 장안벚꽃로 107 102동 101호(장안동,현대홈타운)",02-6457-0087,37.5710567385,127.0751129785,일반
한일어린이집,A,우수,우수,우수,우수,2022-07-01,2426,동대문구,11230000025,민간,서울특별시 동대문구 외대역동로 118 (이문동),02-969-2558,37.59888105,127.0666539,야간연장
함께행복한어린이집,A,우수,우수,우수,우수,2021-08-01,2575,동대문구,11230000088,가정,"서울특별시 동대문구 왕산로23길 89 103동 105호(제기동, 이수브라운 스톤아파트)",02-925-5123,37.58232117,127.0342104,야간연장
해리어린이집,A,우수,우수,우수,우수,2019-11-01,2623,동대문구,11230000304,가정,"서울특별시 동대문구 답십리로66길 20 101동 101호(장안동, 금강아미움 아파트)",02-2246-2270,37.57172688,127.0678521,일반
해맑은어린이집,A,우수,우수,우수,우수,2020-02-01,2514,동대문구,11230000194,국공립,서울특별시 동대문구 한천로46길 70-9 (장안동),02-2243-0088,37.58108023180034,127.07233689703648,일반
해솔어린이집,A,우수,우수,우수,우수,2023-05-01,2512,동대문구,11230000473,국공립,"서울특별시 동대문구 한천로 248 (휘경동, 휘경주공아파트)",02-6452-7942,37.58278806196844,127.0716026538277,일반
해오름어린이집,A,우수,우수,우수,우수,2020-01-01,2476,동대문구,11230000147,국공립,서울특별시 동대문구 약령시로5길 22 (제기동),02-929-0081,37.58396475,127.0342209,야간연장
해찬어린이집,A,우수,우수,우수,우수,2023-11-01,2512,동대문구,11230000051,민간,서울특별시 동대문구 한천로 248 휘경주공2차아파트 단지동 (휘경동),02-6451-7942,37.583237,127.0719,야간연장
해피트리어린이집,B,우수,보통,우수,우수,2019-12-01,2629,동대문구,11230000342,가정,"서울특별시 동대문구 장한로5길 28 301동 106호(장안동, 신일해피트리3차아파트)",02-2244-3533,37.56488543,127.0650238,일반
햇님어린이집,B,우수,우수,보통,우수,2023-03-01,2532,동대문구,11230000225,가정,"서울특별시 동대문구 사가정로 148 108동 104호(전농동, SK아파트)",02-2213-4322,37.57736991986535,127.06122208860444,야간연장
햇빛어린이집,A,우수,우수,우수,우수,2023-08-01,2533,동대문구,11230000249,국공립,"서울특별시 동대문구 사가정로 190 16동 108호(전농동, 우성아파트)",02-2242-0089,37.57727289,127.065358,야간연장
햇살어린이집,A,우수,우수,우수,우수,2022-08-01,2590,동대문구,11230000053,국공립,서울특별시 동대문구 청계천로 547 (용두동 696-9),02-962-5519,37.57282049705496,127.03697997812796,"장애아통합,야간연장"
허브리츠어린이집,A,우수,우수,우수,우수,2023-02-01,2567,동대문구,11230000472,국공립,"서울특별시 동대문구 정릉천동로 36 (용두동,허브리츠) 관리동",02-965-0121,37.5754860712,127.0371126933,일반
현대참사랑어린이집,A,우수,우수,우수,우수,2023-11-01,2521,동대문구,11230000296,가정,"서울특별시 동대문구 장안벚꽃로1길 7 1008동 102호(장안동, 장안힐스테이트아파트)",02-2249-6655,37.576376569201024,127.07454776862284,일반
혜빛어린이집,B,보통,우수,우수,우수,2023-11-01,2547,동대문구,11230000198,민간,서울특별시 동대문구 사가정로9길 18-1 (전농동),02-2248-9787,37.57750603,127.0559313,야간연장
호수어린이집,A,우수,우수,우수,우수,2021-08-01,2598,동대문구,11230000461,국공립,"서울특별시 동대문구 답십리로 130 403동 106호(답십리동, 래미안위브)",02-2214-2230,37.5728565778,127.0524024024,일반
홀츠앤키즈어린이집,A,우수,우수,우수,우수,2020-01-01,2508,동대문구,11230000432,민간,서울특별시 동대문구 전농로16길 51 관리동,02-3394-7206,37.57833777090646,127.060429010087,일반
회기어린이집,A,우수,우수,우수,우수,2019-01-01,2452,동대문구,11230000110,국공립,서울특별시 동대문구 회기로 165 (회기동 58-1),02-969-6691,37.59067132,127.0544934,야간연장
효림어린이집,B,우수,우수,보통,우수,2022-09-01,2512,동대문구,11230000094,가정,"서울특별시 동대문구 한천로 248 111동 105호(휘경동, 주공아파트)",02-6238-0460,37.583237,127.0719,야간연장
휘경SK뷰어린이집,A,우수,우수,우수,우수,2020-03-01,2434,동대문구,11230000490,국공립,"서울특별시 동대문구 휘경로 60 휘경SK뷰아파트, 관리동",02-6949-3393,37.5935220071109,127.06625145045372,일반
휘경스마일어린이집,A,우수,우수,우수,우수,2023-07-01,2445,동대문구,11230000446,국공립,서울특별시 동대문구 이문로8길 8-7,02-959-6401,37.591486613604616,127.05777793521736,야간연장
휘경어린이집,A,우수,우수,우수,우수,2023-11-01,2496,동대문구,11230000027,국공립,서울특별시 동대문구 망우로10가길 15 (휘경동 308-196),02-2243-2831,37.5913124,127.0613223,"장애아통합,야간연장"
휴사랑어린이집,A,우수,우수,우수,우수,2023-01-01,2593,동대문구,11230000427,가정,서울특별시 동대문구 서울시립대로 14 청계한신휴플러스107-104 (답십리동),02-2244-4117,37.57239233,127.0459184,일반
가온누리어린이집,B,우수,우수,우수,보통,2022-06-01,2134,중랑구,11260000005,민간,서울특별시 중랑구 동일로99길 38 (면목동),02-433-6441,37.58794273,127.0776944,일반
경동제일어린이집,A,우수,우수,우수,우수,2022-01-01,2048,중랑구,11260000164,민간,서울특별시 중랑구 봉화산로 91 (중화동),02-434-2680,37.60265898,127.0848175,일반
금강어린이집,A,우수,우수,우수,우수,2022-08-01,2188,중랑구,11260000071,국공립,서울특별시 중랑구 용마산로100길 20 (망우동),02-434-9669,37.59123313,127.0991354,"장애아통합,야간연장,시간제보육"
금강펜테리움어린이집,A,우수,우수,우수,우수,2022-12-01,2057,중랑구,11260000473,국공립,서울특별시 중랑구 용마산로136길 160 관리동 (망우동),02-2208-6366,37.60893230118773,127.11001525945692,일반
금빛어린이집,B,우수,우수,보통,우수,2021-07-01,2250,중랑구,11260000214,민간,서울특별시 중랑구 용마산로53길 26 (면목동),02-433-1212,37.57831598087625,127.0894342811138,야간연장
금성어린이집,A,우수,우수,우수,우수,2022-03-01,2175,중랑구,11260000248,민간,서울특별시 중랑구 상봉로12길 44 (망우동),02-492-2808,37.590856224178935,127.09603003315722,야간연장
금파어린이집,A,우수,우수,우수,우수,2020-01-01,2176,중랑구,11260000035,국공립,서울특별시 중랑구 용마산로 520-5 (망우동),02-434-0600,37.59752722,127.100714,"장애아통합,야간연장"
금호어린이집,A,우수,우수,우수,우수,2019-01-01,2036,중랑구,11260000416,가정,"서울특별시 중랑구 공릉로2길 39 ,102동106호(묵동,금호어울림아파트)",02-6012-7579,37.61289719180665,127.07993338215272,일반
금호어울림어린이집,A,우수,우수,우수,우수,2023-07-01,2057,중랑구,11260000476,국공립,서울특별시 중랑구 양원역로10길 75 금호어울림 관리동 (망우동),02-434-0678,37.56647,126.977963,일반
꼬마사랑어린이집,A,우수,우수,우수,우수,2021-02-01,2131,중랑구,11260000467,국공립,서울특별시 중랑구 봉우재로6길 9 (면목동),02-432-0097,37.589556087262416,127.07628815848594,"야간연장,휴일보육"
꼬마친구어린이집,B,우수,우수,우수,보통,2021-07-01,2075,중랑구,11260000413,가정,"서울특별시 중랑구 봉화산로 130 1304-104 (상봉동, 쌍용아파트)",02-3421-6373,37.6051018239227,127.0902171406625,일반
꿈마루어린이집,A,우수,우수,우수,우수,2022-06-01,2207,중랑구,11260000082,국공립,서울특별시 중랑구 겸재로50나길 71 (면목동),02-433-8734,37.5857724887447,127.094211994659,"장애아통합,야간연장"
꿈보어린이집,A,우수,우수,우수,우수,2020-01-01,2054,중랑구,11260000439,가정,"서울특별시 중랑구 신내로 110 12동102호(신내동,동성아파트)",070-4062-7600,37.608475766544615,127.09631089999836,일반
꿈사랑어린이집,A,우수,우수,우수,우수,2019-11-01,2028,중랑구,11260000290,가정,"서울특별시 중랑구 신내로19길 42 615동 106호(신내동, 신내대주아파트)",02-6461-2004,37.6153177,127.0911199,일반
꿈터어린이집,A,우수,우수,우수,우수,2020-07-01,2241,중랑구,11260000461,국공립,서울특별시 중랑구 사가정로42길 90 두산아파트 관리동(면목동),02-435-3382,37.57794351988769,127.08119233936485,야간연장
나래어린이집,A,우수,우수,우수,우수,2023-07-01,2143,중랑구,11260000125,민간,서울특별시 중랑구 봉우재로 94-3 (면목동),02-495-0670,37.59170446,127.0836959,야간연장
나무어린이집,A,우수,우수,우수,우수,2020-01-01,2094,중랑구,11260000286,가정,서울특별시 중랑구 동일로126길 5-12 (중화동),02-433-4279,37.59938750334992,127.08065849618052,일반
너나들이어린이집,B,우수,우수,보통,우수,2020-08-01,2263,중랑구,11260000455,협동,"서울특별시 중랑구 신내역로1길 145 102호(신내동,신내소행주)",070-7743-7772,37.61810390526847,127.11050449828782,일반
노벨어린이집,A,우수,우수,우수,우수,2023-08-01,2185,중랑구,11260000162,민간,서울특별시 중랑구 용마공원로 34-1 (망우동),02-439-8053,37.59263443,127.1016425,일반
뉴솔로몬어린이집,A,우수,우수,우수,우수,2023-07-01,2180,중랑구,11260000152,민간,서울특별시 중랑구 용마공원로5길 15 (망우동),02-495-0101,37.59537635,127.1016492,일반
늘푸른동아어린이집,A,우수,우수,우수,우수,2022-01-01,2247,중랑구,11260000081,민간,"서울특별시 중랑구 동일로 476 늘푸른동아아파트 102동 101호,102호 (면목동)",02-493-6985,37.57283234,127.0807064,"영아전담,야간연장"
늘해랑어린이집,A,우수,우수,우수,우수,2023-01-01,2170,중랑구,11260000249,민간,서울특별시 중랑구 상봉로26길 32 늘해랑어린이집,02-437-3232,37.59558384,127.0949598,일반
다솜어린이집,A,우수,우수,우수,우수,2023-01-01,2071,중랑구,11260000454,국공립,"서울특별시 중랑구 봉화산로56길 145-1 5동 103호(신내동, 중앙하이츠아파트)",02-6212-0330,37.601923138,127.0970815687,야간연장
단비어린이집,B,우수,우수,보통,우수,2022-06-01,2237,중랑구,11260000239,민간,서울특별시 중랑구 면목로37길 57 두산3차아파트 301동 1층 (면목동),02-2209-1475,37.57975111,127.0829808,일반
대건어린이집,A,우수,우수,우수,우수,2022-06-01,2085,중랑구,11260000184,법인?단체등,서울특별시 중랑구 신내로7길 6 (신내동),02-2208-0457,37.60271093,127.0955304,일반
동심어린이집,A,우수,우수,우수,우수,2022-04-01,2180,중랑구,11260000471,국공립,서울특별시 중랑구 용마공원로3길 40 (망우동),02-432-6461,37.56647,126.977963,장애아통합
둘리어린이집,B,우수,우수,보통,우수,2021-03-01,2026,중랑구,11260000034,민간,서울특별시 중랑구 신내로 127 신내아파트관리사무소1층 (신내동),02-3421-9514,37.61197188,127.0961284,일반
둥지어린이집,A,우수,우수,우수,우수,2022-06-01,2019,중랑구,11260000046,국공립,서울특별시 중랑구 공릉로14길 19 (묵동),02-974-6893,37.61769423,127.0802529,야간연장
드림아이어린이집,B,보통,우수,우수,우수,2020-09-01,2095,중랑구,11260000391,가정,"서울특별시 중랑구 동일로 752 102동 102호(중화동, 중화한신아파트)",02-495-3378,37.59709077,127.0818281,일반
드림어린이집,A,우수,우수,우수,우수,2018-09-01,2201,중랑구,11260000432,국공립,서울특별시 중랑구 겸재로64길 23 (면목동),02-493-1692,37.589263271948695,127.0960279865128,야간연장
디즈니프리스쿨어린이집,A,우수,우수,우수,우수,2022-01-01,2028,중랑구,11260000196,가정,"서울특별시 중랑구 신내로19길 42 608동 106호(신내동, 신내대주아파트)",02-3421-9647,37.60754222,127.0939927,일반
딸기어린이집,A,우수,우수,우수,우수,2019-11-01,2065,중랑구,11260000421,국공립,"서울특별시 중랑구 망우로75길 19 106동P층(망우동,중랑숲리가아파트)",02-2208-7707,37.60169865071271,127.10481684383964,야간연장
또또어린이집,A,우수,우수,우수,우수,2022-06-01,2225,중랑구,11260000075,국공립,서울특별시 중랑구 동일로 584 (면목동),02-434-8998,37.58266754,127.0813271,"야간연장,시간제보육"
또래또어린이집,A,우수,우수,우수,우수,2022-06-01,2035,중랑구,11260000085,가정,"서울특별시 중랑구 공릉로2나길 46 201동 102호(묵동, 신안2차아파트)",02-972-8645,37.61410646,127.0799256,일반
라온어린이집,A,우수,우수,우수,우수,2023-12-01,2234,중랑구,11260000469,국공립,서울특별시 중랑구 동일로91길 23 (면목동),02-432-5592,37.58212575383797,127.07879675053024,야간연장
라임어린이집,B,우수,보통,보통,보통,2022-07-01,2002,중랑구,11260000426,민간,서울특별시 중랑구 중랑역로 234-7 (묵동),02-976-2937,37.614534556147184,127.07580002221682,일반
면일어린이집,A,우수,우수,우수,우수,2019-09-01,2157,중랑구,11260000074,국공립,서울특별시 중랑구 상봉로19길 13 (면목동),02-495-4604,37.59334211586401,127.09257742699208,"장애아통합,방과후 통합,야간연장,시간제보육"
명인어린이집,A,우수,우수,우수,우수,2022-06-01,2222,중랑구,11260000017,국공립,서울특별시 중랑구 면목로53길 70 (면목동),02-434-4651,37.58408567,127.0844448,"야간연장,휴일보육"
모모어린이집,A,우수,우수,우수,우수,2022-06-01,2086,중랑구,11260000219,민간,서울특별시 중랑구 송림길 16 훼밀리상가 (신내동),02-491-6141,37.60038836,127.0960409,일반
미리내어린이집,B,우수,우수,보통,우수,2020-02-01,2177,중랑구,11260000161,가정,서울특별시 중랑구 용마산로116길 58 (망우동),02-495-6908,37.59950469,127.1036346,일반
바다의별어린이집,A,우수,우수,우수,우수,2023-09-01,2197,중랑구,11260000063,민간,서울특별시 중랑구 면목로 388-23 (면목동),02-2209-3351,37.58715204,127.0886533,야간연장
배꽃어린이집,A,우수,우수,우수,우수,2022-06-01,2166,중랑구,11260000060,국공립,서울특별시 중랑구 용마산로109길 18 (망우동),02-494-5511,37.59749839,127.0990598,"장애아통합,야간연장"
배봉어린이집,A,우수,우수,우수,우수,2023-02-01,2043,중랑구,11260000070,국공립,서울특별시 중랑구 신내로 115 (신내동),02-3422-1891,37.60923861,127.094663,야간연장
베비텔어린이집,B,우수,보통,우수,보통,2023-07-01,2167,중랑구,11260000169,민간,서울특별시 중랑구 봉우재로65길 45 (망우동),02-493-0144,37.59710669,127.0974418,야간연장
별하어린이집,A,우수,우수,우수,우수,2023-11-01,2131,중랑구,11260000099,민간,서울특별시 중랑구 봉우재로12길 12-11 (면목동),02-433-1365,37.58943472,127.0774473,일반
보경어린이집,A,우수,우수,우수,우수,2020-01-01,2066,중랑구,11260000032,국공립,서울특별시 중랑구 망우로77길 12 (망우동),02-438-3368,37.60136921,127.1064027,"영아전담,야간연장"
보림어린이집,A,우수,우수,우수,우수,2020-11-01,2007,중랑구,11260000466,국공립,"서울특별시 중랑구 중랑천로 286 101동 101호(묵동, 현대아이파크)",02-948-0533,37.60997834008334,127.07425058726479,야간연장
봄내어린이집,A,우수,우수,우수,우수,2023-11-01,2217,중랑구,11260000115,민간,서울특별시 중랑구 면목로63길 47-4 (면목동),02-438-9707,37.58610744,127.085353,일반
봉화어린이집,B,우수,우수,우수,보통,2022-06-01,2044,중랑구,11260000062,국공립,"서울특별시 중랑구 봉화산로 165 (상봉동,신내12단지아파트 내 신내종합사회복지관 1층)",02-3421-2535,37.60528359,127.0910993,"장애아통합,야간연장"
사가정 아이파크어린이집,B,우수,우수,보통,우수,2021-11-01,2226,중랑구,11260000470,국공립,서울특별시 중랑구 동일로92길 40 (면목동),02-496-8077,37.56647,126.977963,야간연장
사과나무어린이집,A,우수,우수,우수,우수,2022-01-01,2221,중랑구,11260000004,민간,서울특별시 중랑구 사가정로51길 47 (면목동),02-2208-6010,37.58303409,127.0876947,일반
사랑나무어린이집,A,우수,우수,우수,우수,2021-06-01,2058,중랑구,11260000044,가정,"서울특별시 중랑구 용마산로 616 101동 101호(신내동, 새한아파트)",02-3421-7383,37.60526023,127.1013446,야간연장
사랑어린이집,A,우수,우수,우수,우수,2022-06-01,2013,중랑구,11260000067,국공립,서울특별시 중랑구 동일로143길 12-12 (묵동),02-973-2396,37.60584798,127.077786,"장애아통합,야간연장"
상봉삼성어린이집,A,우수,우수,우수,우수,2020-01-01,2154,중랑구,11260000159,법인?단체등,서울특별시 중랑구 면목로88길 9 (상봉동),02-434-0191,37.59412144,127.0868856,일반
상봉어린이집,A,우수,우수,우수,우수,2022-06-01,2081,중랑구,11260000078,국공립,서울특별시 중랑구 상봉중앙로6길 57 (상봉동),02-432-3421,37.60199993,127.0901279,"방과후 통합,야간연장"
새롬어린이집,A,우수,우수,우수,우수,2022-09-01,2249,중랑구,11260000246,국공립,서울특별시 중랑구 면목로42길 22 (면목동),02-494-7612,37.57950957,127.0891404,야간연장
새믿음어린이집,C,개선필요,보통,보통,우수,2022-03-01,2176,중랑구,11260000229,민간,서울특별시 중랑구 용마산로116길 26 (망우동),02-494-4545,37.59935035,127.10194,일반
새봄어린이집,A,우수,우수,우수,우수,2023-11-01,2113,중랑구,11260000381,민간,서울특별시 중랑구 중랑천로20길 27-4 (중화동),02-496-5209,37.59719023,127.0731118,일반
새솔어린이집,A,우수,우수,우수,우수,2022-04-01,2055,중랑구,11260000427,국공립,"서울특별시 중랑구 신내역로 165 (신내동, 신내우디안2단지아파트 관리동)",02-3422-1592,37.61655851008975,127.10975465651012,"장애아통합,야간연장"
새싹어린이집,B,우수,우수,보통,우수,2022-07-01,2136,중랑구,11260000015,국공립,서울특별시 중랑구 동일로118길 9 (상봉동),02-496-0866,37.59465252,127.0808967,"야간연장,휴일보육"
새우개 하나어린이집,A,우수,우수,우수,우수,2021-08-01,2052,중랑구,11260000468,국공립,서울특별시 중랑구 용마산로139다길 17 (신내동),02-438-1318,37.61885896128479,127.10248614533911,"장애아통합,야간연장"
새한어린이집,A,우수,우수,우수,우수,2023-08-01,2058,중랑구,11260000450,국공립,서울특별시 중랑구 용마산로 616 관리동 1층 (신내동),02-3421-7900,37.6049325667,127.1012258353,야간연장
